{
"type": "FeatureCollection",
"name": "MilitaryBase ",
"crs": { "type": "name", "properties": { "name": "urn:ogc:def:crs:OGC:1.3:CRS84" } },
"features": [
{ "type": "Feature", "properties": { "COMPONENT": "AF Guard", "SITE_NAME": "Luis Munoz Marin IAP", "JOINT_BASE": "N\/A", "STATE_TERR": "Puerto Rico", "COUNTRY": "Puerto Rico", "OPER_STAT": "Active" }, "geometry": { "type": "Point", "coordinates": [ -65.99407, 18.44392 ] } },
{ "type": "Feature", "properties": { "COMPONENT": "AF Guard", "SITE_NAME": "NAS JRB New Orleans", "JOINT_BASE": "N\/A", "STATE_TERR": "Louisiana", "COUNTRY": "United States", "OPER_STAT": "Active" }, "geometry": { "type": "Point", "coordinates": [ -90.0199, 29.83433 ] } },
{ "type": "Feature", "properties": { "COMPONENT": "AF Guard", "SITE_NAME": "Gulfport-Biloxi Regional Airport (ANG)", "JOINT_BASE": "N\/A", "STATE_TERR": "Mississippi", "COUNTRY": "United States", "OPER_STAT": "Active" }, "geometry": { "type": "Point", "coordinates": [ -89.06105, 30.41068 ] } },
{ "type": "Feature", "properties": { "COMPONENT": "AF Guard", "SITE_NAME": "Jacksonville IAP", "JOINT_BASE": "N\/A", "STATE_TERR": "Florida", "COUNTRY": "United States", "OPER_STAT": "Active" }, "geometry": { "type": "Point", "coordinates": [ -81.70243, 30.48868 ] } },
{ "type": "Feature", "properties": { "COMPONENT": "AF Guard", "SITE_NAME": "Tucson IAP", "JOINT_BASE": "N\/A", "STATE_TERR": "Arizona", "COUNTRY": "United States", "OPER_STAT": "Active" }, "geometry": { "type": "Point", "coordinates": [ -110.94932, 32.13054 ] } },
{ "type": "Feature", "properties": { "COMPONENT": "AF Guard", "SITE_NAME": "Savannah\/Hilton Head IAP", "JOINT_BASE": "N\/A", "STATE_TERR": "Georgia", "COUNTRY": "United States", "OPER_STAT": "Active" }, "geometry": { "type": "Point", "coordinates": [ -81.18874, 32.13116 ] } },
{ "type": "Feature", "properties": { "COMPONENT": "AF Guard", "SITE_NAME": "Montgomery Regional Airport ANGB", "JOINT_BASE": "N\/A", "STATE_TERR": "Alabama", "COUNTRY": "United States", "OPER_STAT": "Active" }, "geometry": { "type": "Point", "coordinates": [ -86.40026, 32.30468 ] } },
{ "type": "Feature", "properties": { "COMPONENT": "AF Guard", "SITE_NAME": "Jackson IAP, Thompson Field", "JOINT_BASE": "N\/A", "STATE_TERR": "Mississippi", "COUNTRY": "United States", "OPER_STAT": "Active" }, "geometry": { "type": "Point", "coordinates": [ -90.08189, 32.32477 ] } },
{ "type": "Feature", "properties": { "COMPONENT": "AF Guard", "SITE_NAME": "Sky Harbor IAP", "JOINT_BASE": "N\/A", "STATE_TERR": "Arizona", "COUNTRY": "United States", "OPER_STAT": "Active" }, "geometry": { "type": "Point", "coordinates": [ -112.01153, 33.426 ] } },
{ "type": "Feature", "properties": { "COMPONENT": "AF Guard", "SITE_NAME": "Birmingham Airport", "JOINT_BASE": "N\/A", "STATE_TERR": "Alabama", "COUNTRY": "United States", "OPER_STAT": "Active" }, "geometry": { "type": "Point", "coordinates": [ -86.75355, 33.57071 ] } },
{ "type": "Feature", "properties": { "COMPONENT": "AF Guard", "SITE_NAME": "McEntire Joint NGB", "JOINT_BASE": "N\/A", "STATE_TERR": "South Carolina", "COUNTRY": "United States", "OPER_STAT": "Active" }, "geometry": { "type": "Point", "coordinates": [ -80.80061, 33.92295 ] } },
{ "type": "Feature", "properties": { "COMPONENT": "AF Guard", "SITE_NAME": "Channel Islands ANGS", "JOINT_BASE": "N\/A", "STATE_TERR": "California", "COUNTRY": "United States", "OPER_STAT": "Active" }, "geometry": { "type": "Point", "coordinates": [ -119.11047, 34.13921 ] } },
{ "type": "Feature", "properties": { "COMPONENT": "AF Guard", "SITE_NAME": "Memphis IAP", "JOINT_BASE": "N\/A", "STATE_TERR": "Tennessee", "COUNTRY": "United States", "OPER_STAT": "Active" }, "geometry": { "type": "Point", "coordinates": [ -89.967, 35.02733 ] } },
{ "type": "Feature", "properties": { "COMPONENT": "AF Guard", "SITE_NAME": "Charlotte\/Douglas IAP", "JOINT_BASE": "N\/A", "STATE_TERR": "North Carolina", "COUNTRY": "United States", "OPER_STAT": "Active" }, "geometry": { "type": "Point", "coordinates": [ -80.92969, 35.21612 ] } },
{ "type": "Feature", "properties": { "COMPONENT": "AF Guard", "SITE_NAME": "Fort Smith MAP", "JOINT_BASE": "N\/A", "STATE_TERR": "Arkansas", "COUNTRY": "United States", "OPER_STAT": "Active" }, "geometry": { "type": "Point", "coordinates": [ -94.3697, 35.3412 ] } },
{ "type": "Feature", "properties": { "COMPONENT": "AF Guard", "SITE_NAME": "Will Rogers World Airport", "JOINT_BASE": "N\/A", "STATE_TERR": "Oklahoma", "COUNTRY": "United States", "OPER_STAT": "Active" }, "geometry": { "type": "Point", "coordinates": [ -97.61099, 35.40468 ] } },
{ "type": "Feature", "properties": { "COMPONENT": "AF Guard", "SITE_NAME": "McGhee Tyson Airport", "JOINT_BASE": "N\/A", "STATE_TERR": "Tennessee", "COUNTRY": "United States", "OPER_STAT": "Active" }, "geometry": { "type": "Point", "coordinates": [ -84.00332, 35.81304 ] } },
{ "type": "Feature", "properties": { "COMPONENT": "AF Guard", "SITE_NAME": "Nashville IAP", "JOINT_BASE": "N\/A", "STATE_TERR": "Tennessee", "COUNTRY": "United States", "OPER_STAT": "Active" }, "geometry": { "type": "Point", "coordinates": [ -86.67588, 36.10977 ] } },
{ "type": "Feature", "properties": { "COMPONENT": "AF Guard", "SITE_NAME": "Tulsa IAP", "JOINT_BASE": "N\/A", "STATE_TERR": "Oklahoma", "COUNTRY": "United States", "OPER_STAT": "Active" }, "geometry": { "type": "Point", "coordinates": [ -95.87682, 36.21625 ] } },
{ "type": "Feature", "properties": { "COMPONENT": "AF Guard", "SITE_NAME": "Fresno Yosemite International (ANG)", "JOINT_BASE": "N\/A", "STATE_TERR": "California", "COUNTRY": "United States", "OPER_STAT": "Active" }, "geometry": { "type": "Point", "coordinates": [ -119.70674, 36.76616 ] } },
{ "type": "Feature", "properties": { "COMPONENT": "AF Guard", "SITE_NAME": "Louisville IAP-Standiford", "JOINT_BASE": "N\/A", "STATE_TERR": "Kentucky", "COUNTRY": "United States", "OPER_STAT": "Active" }, "geometry": { "type": "Point", "coordinates": [ -85.72472, 38.17767 ] } },
{ "type": "Feature", "properties": { "COMPONENT": "AF Guard", "SITE_NAME": "Yeager Airport", "JOINT_BASE": "N\/A", "STATE_TERR": "West Virginia", "COUNTRY": "United States", "OPER_STAT": "Active" }, "geometry": { "type": "Point", "coordinates": [ -81.5917, 38.37297 ] } },
{ "type": "Feature", "properties": { "COMPONENT": "AF Guard", "SITE_NAME": "Forbes Field (ANG)", "JOINT_BASE": "N\/A", "STATE_TERR": "Kansas", "COUNTRY": "United States", "OPER_STAT": "Active" }, "geometry": { "type": "Point", "coordinates": [ -95.67966, 38.96173 ] } },
{ "type": "Feature", "properties": { "COMPONENT": "AF Guard", "SITE_NAME": "Martin State Apt", "JOINT_BASE": "N\/A", "STATE_TERR": "Maryland", "COUNTRY": "United States", "OPER_STAT": "Active" }, "geometry": { "type": "Point", "coordinates": [ -76.41904, 39.33404 ] } },
{ "type": "Feature", "properties": { "COMPONENT": "AF Guard", "SITE_NAME": "EWVRA Shepherd Field", "JOINT_BASE": "N\/A", "STATE_TERR": "West Virginia", "COUNTRY": "United States", "OPER_STAT": "Active" }, "geometry": { "type": "Point", "coordinates": [ -77.98564, 39.40486 ] } },
{ "type": "Feature", "properties": { "COMPONENT": "AF Guard", "SITE_NAME": "Atlantic City IAP", "JOINT_BASE": "N\/A", "STATE_TERR": "New Jersey", "COUNTRY": "United States", "OPER_STAT": "Active" }, "geometry": { "type": "Point", "coordinates": [ -74.58213, 39.44802 ] } },
{ "type": "Feature", "properties": { "COMPONENT": "AF Guard", "SITE_NAME": "Reno Tahoe IAP", "JOINT_BASE": "N\/A", "STATE_TERR": "Nevada", "COUNTRY": "United States", "OPER_STAT": "Active" }, "geometry": { "type": "Point", "coordinates": [ -119.77294, 39.49979 ] } },
{ "type": "Feature", "properties": { "COMPONENT": "AF Guard", "SITE_NAME": "New Castle County Airport", "JOINT_BASE": "N\/A", "STATE_TERR": "Delaware", "COUNTRY": "United States", "OPER_STAT": "Active" }, "geometry": { "type": "Point", "coordinates": [ -75.60392, 39.67845 ] } },
{ "type": "Feature", "properties": { "COMPONENT": "AF Guard", "SITE_NAME": "Rosecrans MAP (139AG)", "JOINT_BASE": "N\/A", "STATE_TERR": "Missouri", "COUNTRY": "United States", "OPER_STAT": "Active" }, "geometry": { "type": "Point", "coordinates": [ -94.90219, 39.76678 ] } },
{ "type": "Feature", "properties": { "COMPONENT": "AF Guard", "SITE_NAME": "Rickenbacker IAP (ANG)", "JOINT_BASE": "N\/A", "STATE_TERR": "Ohio", "COUNTRY": "United States", "OPER_STAT": "Active" }, "geometry": { "type": "Point", "coordinates": [ -82.94164, 39.81161 ] } },
{ "type": "Feature", "properties": { "COMPONENT": "AF Guard", "SITE_NAME": "Springfield Beckley MAP", "JOINT_BASE": "N\/A", "STATE_TERR": "Ohio", "COUNTRY": "United States", "OPER_STAT": "Active" }, "geometry": { "type": "Point", "coordinates": [ -83.83546, 39.84924 ] } },
{ "type": "Feature", "properties": { "COMPONENT": "AF Guard", "SITE_NAME": "Pittsburgh IAP (ANG)", "JOINT_BASE": "N\/A", "STATE_TERR": "Pennsylvania", "COUNTRY": "United States", "OPER_STAT": "Active" }, "geometry": { "type": "Point", "coordinates": [ -80.21564, 40.48122 ] } },
{ "type": "Feature", "properties": { "COMPONENT": "AF Guard", "SITE_NAME": "Salt Lake City IAP", "JOINT_BASE": "N\/A", "STATE_TERR": "Utah", "COUNTRY": "United States", "OPER_STAT": "Active" }, "geometry": { "type": "Point", "coordinates": [ -111.95843, 40.78866 ] } },
{ "type": "Feature", "properties": { "COMPONENT": "AF Guard", "SITE_NAME": "Mansfield Lahm MAP", "JOINT_BASE": "N\/A", "STATE_TERR": "Ohio", "COUNTRY": "United States", "OPER_STAT": "Active" }, "geometry": { "type": "Point", "coordinates": [ -82.51661, 40.81337 ] } },
{ "type": "Feature", "properties": { "COMPONENT": "AF Guard", "SITE_NAME": "Francis S. Gabreski Airport", "JOINT_BASE": "N\/A", "STATE_TERR": "New York", "COUNTRY": "United States", "OPER_STAT": "Active" }, "geometry": { "type": "Point", "coordinates": [ -72.64314, 40.83687 ] } },
{ "type": "Feature", "properties": { "COMPONENT": "AF Guard", "SITE_NAME": "Lincoln MAP", "JOINT_BASE": "N\/A", "STATE_TERR": "Nebraska", "COUNTRY": "United States", "OPER_STAT": "Active" }, "geometry": { "type": "Point", "coordinates": [ -96.75383, 40.8406 ] } },
{ "type": "Feature", "properties": { "COMPONENT": "AF Guard", "SITE_NAME": "Cheyenne Regional Apt", "JOINT_BASE": "N\/A", "STATE_TERR": "Wyoming", "COUNTRY": "United States", "OPER_STAT": "Active" }, "geometry": { "type": "Point", "coordinates": [ -104.82013, 41.16155 ] } },
{ "type": "Feature", "properties": { "COMPONENT": "AF Guard", "SITE_NAME": "Stewart IAP", "JOINT_BASE": "N\/A", "STATE_TERR": "New York", "COUNTRY": "United States", "OPER_STAT": "Active" }, "geometry": { "type": "Point", "coordinates": [ -74.08442, 41.50143 ] } },
{ "type": "Feature", "properties": { "COMPONENT": "AF Guard", "SITE_NAME": "Des Moines IAP", "JOINT_BASE": "N\/A", "STATE_TERR": "Iowa", "COUNTRY": "United States", "OPER_STAT": "Active" }, "geometry": { "type": "Point", "coordinates": [ -93.66175, 41.53989 ] } },
{ "type": "Feature", "properties": { "COMPONENT": "AF Guard", "SITE_NAME": "Toledo\/Exp Airport", "JOINT_BASE": "N\/A", "STATE_TERR": "Ohio", "COUNTRY": "United States", "OPER_STAT": "Active" }, "geometry": { "type": "Point", "coordinates": [ -83.79404, 41.58933 ] } },
{ "type": "Feature", "properties": { "COMPONENT": "AF Guard", "SITE_NAME": "Otis ANGB", "JOINT_BASE": "N\/A", "STATE_TERR": "Massachusetts", "COUNTRY": "United States", "OPER_STAT": "Active" }, "geometry": { "type": "Point", "coordinates": [ -70.52367, 41.64803 ] } },
{ "type": "Feature", "properties": { "COMPONENT": "AF Guard", "SITE_NAME": "Bradley IAP", "JOINT_BASE": "N\/A", "STATE_TERR": "Connecticut", "COUNTRY": "United States", "OPER_STAT": "Active" }, "geometry": { "type": "Point", "coordinates": [ -72.70115, 41.93524 ] } },
{ "type": "Feature", "properties": { "COMPONENT": "AF Guard", "SITE_NAME": "Klamath Falls Airport-Kingsley Field (ANG)", "JOINT_BASE": "N\/A", "STATE_TERR": "Oregon", "COUNTRY": "United States", "OPER_STAT": "Active" }, "geometry": { "type": "Point", "coordinates": [ -121.74378, 42.16226 ] } },
{ "type": "Feature", "properties": { "COMPONENT": "AF Guard", "SITE_NAME": "Barnes MAP (ANG)", "JOINT_BASE": "N\/A", "STATE_TERR": "Massachusetts", "COUNTRY": "United States", "OPER_STAT": "Active" }, "geometry": { "type": "Point", "coordinates": [ -72.71766, 42.16838 ] } },
{ "type": "Feature", "properties": { "COMPONENT": "AF Guard", "SITE_NAME": "W K Kellogg Airport", "JOINT_BASE": "N\/A", "STATE_TERR": "Michigan", "COUNTRY": "United States", "OPER_STAT": "Active" }, "geometry": { "type": "Point", "coordinates": [ -85.24986, 42.31735 ] } },
{ "type": "Feature", "properties": { "COMPONENT": "AF Guard", "SITE_NAME": "Sioux Gateway Apt\/Col Bud Day Field (ANG)", "JOINT_BASE": "N\/A", "STATE_TERR": "Iowa", "COUNTRY": "United States", "OPER_STAT": "Active" }, "geometry": { "type": "Point", "coordinates": [ -96.37337, 42.3949 ] } },
{ "type": "Feature", "properties": { "COMPONENT": "AF Guard", "SITE_NAME": "Selfridge ANGB", "JOINT_BASE": "N\/A", "STATE_TERR": "Michigan", "COUNTRY": "United States", "OPER_STAT": "Active" }, "geometry": { "type": "Point", "coordinates": [ -82.83685, 42.61349 ] } },
{ "type": "Feature", "properties": { "COMPONENT": "AF Guard", "SITE_NAME": "Schenectady MAP (ANG)", "JOINT_BASE": "N\/A", "STATE_TERR": "New York", "COUNTRY": "United States", "OPER_STAT": "Active" }, "geometry": { "type": "Point", "coordinates": [ -73.92317, 42.85249 ] } },
{ "type": "Feature", "properties": { "COMPONENT": "AF Guard", "SITE_NAME": "Gen Mitchell IAP", "JOINT_BASE": "N\/A", "STATE_TERR": "Wisconsin", "COUNTRY": "United States", "OPER_STAT": "Active" }, "geometry": { "type": "Point", "coordinates": [ -87.88778, 42.94083 ] } },
{ "type": "Feature", "properties": { "COMPONENT": "AF Guard", "SITE_NAME": "Hancock Field", "JOINT_BASE": "N\/A", "STATE_TERR": "New York", "COUNTRY": "United States", "OPER_STAT": "Active" }, "geometry": { "type": "Point", "coordinates": [ -76.10323, 43.10243 ] } },
{ "type": "Feature", "properties": { "COMPONENT": "AF Guard", "SITE_NAME": "Boise Air Terminal (ANG)", "JOINT_BASE": "N\/A", "STATE_TERR": "Idaho", "COUNTRY": "United States", "OPER_STAT": "Active" }, "geometry": { "type": "Point", "coordinates": [ -116.22198, 43.55895 ] } },
{ "type": "Feature", "properties": { "COMPONENT": "AF Guard", "SITE_NAME": "Joe Foss Field", "JOINT_BASE": "N\/A", "STATE_TERR": "South Dakota", "COUNTRY": "United States", "OPER_STAT": "Active" }, "geometry": { "type": "Point", "coordinates": [ -96.74345, 43.57474 ] } },
{ "type": "Feature", "properties": { "COMPONENT": "AF Guard", "SITE_NAME": "Volk ANGB", "JOINT_BASE": "N\/A", "STATE_TERR": "Wisconsin", "COUNTRY": "United States", "OPER_STAT": "Active" }, "geometry": { "type": "Point", "coordinates": [ -90.25288, 43.93917 ] } },
{ "type": "Feature", "properties": { "COMPONENT": "AF Guard", "SITE_NAME": "Burlington IAP", "JOINT_BASE": "N\/A", "STATE_TERR": "Vermont", "COUNTRY": "United States", "OPER_STAT": "Active" }, "geometry": { "type": "Point", "coordinates": [ -73.14672, 44.47379 ] } },
{ "type": "Feature", "properties": { "COMPONENT": "AF Guard", "SITE_NAME": "Bangor IAP", "JOINT_BASE": "N\/A", "STATE_TERR": "Maine", "COUNTRY": "United States", "OPER_STAT": "Active" }, "geometry": { "type": "Point", "coordinates": [ -68.82419, 44.81547 ] } },
{ "type": "Feature", "properties": { "COMPONENT": "AF Guard", "SITE_NAME": "Alpena County Regional Airport", "JOINT_BASE": "N\/A", "STATE_TERR": "Michigan", "COUNTRY": "United States", "OPER_STAT": "Active" }, "geometry": { "type": "Point", "coordinates": [ -83.56392, 45.08262 ] } },
{ "type": "Feature", "properties": { "COMPONENT": "AF Guard", "SITE_NAME": "Portland IAP", "JOINT_BASE": "N\/A", "STATE_TERR": "Oregon", "COUNTRY": "United States", "OPER_STAT": "Active" }, "geometry": { "type": "Point", "coordinates": [ -122.59606, 45.57924 ] } },
{ "type": "Feature", "properties": { "COMPONENT": "AF Guard", "SITE_NAME": "Duluth IAP", "JOINT_BASE": "N\/A", "STATE_TERR": "Minnesota", "COUNTRY": "United States", "OPER_STAT": "Active" }, "geometry": { "type": "Point", "coordinates": [ -92.17555, 46.84492 ] } },
{ "type": "Feature", "properties": { "COMPONENT": "AF Guard", "SITE_NAME": "Hector IAP", "JOINT_BASE": "N\/A", "STATE_TERR": "North Dakota", "COUNTRY": "United States", "OPER_STAT": "Active" }, "geometry": { "type": "Point", "coordinates": [ -96.80423, 46.91134 ] } },
{ "type": "Feature", "properties": { "COMPONENT": "AF Guard", "SITE_NAME": "Quonset State Airport", "JOINT_BASE": "N\/A", "STATE_TERR": "Rhode Island", "COUNTRY": "United States", "OPER_STAT": "Active" }, "geometry": { "type": "Point", "coordinates": [ -71.41764, 41.59855 ] } },
{ "type": "Feature", "properties": { "COMPONENT": "AF Guard", "SITE_NAME": "Pease ANGB", "JOINT_BASE": "N\/A", "STATE_TERR": "New Hampshire", "COUNTRY": "United States", "OPER_STAT": "Active" }, "geometry": { "type": "Point", "coordinates": [ -70.82025, 43.08735 ] } },
{ "type": "Feature", "properties": { "COMPONENT": "AF Guard", "SITE_NAME": "Ellington Field", "JOINT_BASE": "N\/A", "STATE_TERR": "Texas", "COUNTRY": "United States", "OPER_STAT": "Active" }, "geometry": { "type": "Point", "coordinates": [ -95.16801, 29.61605 ] } },
{ "type": "Feature", "properties": { "COMPONENT": "AF Guard", "SITE_NAME": "Fort Carson Weapons Range", "JOINT_BASE": "N\/A", "STATE_TERR": "Colorado", "COUNTRY": "United States", "OPER_STAT": "Active" }, "geometry": { "type": "Point", "coordinates": [ -104.76192, 38.67945 ] } },
{ "type": "Feature", "properties": { "COMPONENT": "Army Guard", "SITE_NAME": "NG Santa Fe - Onate Complex TS", "JOINT_BASE": "N\/A", "STATE_TERR": "New Mexico", "COUNTRY": "United States", "OPER_STAT": "Active" }, "geometry": { "type": "Point", "coordinates": [ -106.08121, 35.56917 ] } },
{ "type": "Feature", "properties": { "COMPONENT": "Army Guard", "SITE_NAME": "MTA-L Camp Williams", "JOINT_BASE": "N\/A", "STATE_TERR": "Utah", "COUNTRY": "United States", "OPER_STAT": "Active" }, "geometry": { "type": "Point", "coordinates": [ -111.92502, 40.43176 ] } },
{ "type": "Feature", "properties": { "COMPONENT": "Army Guard", "SITE_NAME": "NG TS Ike Skelton Jefferson City", "JOINT_BASE": "N\/A", "STATE_TERR": "Missouri", "COUNTRY": "United States", "OPER_STAT": "Active" }, "geometry": { "type": "Point", "coordinates": [ -92.07466, 38.55208 ] } },
{ "type": "Feature", "properties": { "COMPONENT": "Army Guard", "SITE_NAME": "MTCH Camp Guernsey", "JOINT_BASE": "N\/A", "STATE_TERR": "Wyoming", "COUNTRY": "United States", "OPER_STAT": "Active" }, "geometry": { "type": "Point", "coordinates": [ -104.83, 42.20909 ] } },
{ "type": "Feature", "properties": { "COMPONENT": "Army Guard", "SITE_NAME": "NG Muscatatuck Urban Training Center", "JOINT_BASE": "N\/A", "STATE_TERR": "Indiana", "COUNTRY": "United States", "OPER_STAT": "Active" }, "geometry": { "type": "Point", "coordinates": [ -85.52029, 39.04659 ] } },
{ "type": "Feature", "properties": { "COMPONENT": "Army Guard", "SITE_NAME": "NG St Cloud AASF", "JOINT_BASE": "N\/A", "STATE_TERR": "Minnesota", "COUNTRY": "United States", "OPER_STAT": "Active" }, "geometry": { "type": "Point", "coordinates": [ -94.0558, 45.53902 ] } },
{ "type": "Feature", "properties": { "COMPONENT": "Army Guard", "SITE_NAME": "NG Lv (Henderson) Readiness Ctr", "JOINT_BASE": "N\/A", "STATE_TERR": "Nevada", "COUNTRY": "United States", "OPER_STAT": "Active" }, "geometry": { "type": "Point", "coordinates": [ -115.20055, 36.01861 ] } },
{ "type": "Feature", "properties": { "COMPONENT": "Army Guard", "SITE_NAME": "NG Papago Military Reservation", "JOINT_BASE": "N\/A", "STATE_TERR": "Arizona", "COUNTRY": "United States", "OPER_STAT": "Active" }, "geometry": { "type": "Point", "coordinates": [ -111.96248, 33.46873 ] } },
{ "type": "Feature", "properties": { "COMPONENT": "Army Guard", "SITE_NAME": "AASF 02 Birmingham", "JOINT_BASE": "N\/A", "STATE_TERR": "Alabama", "COUNTRY": "United States", "OPER_STAT": "Active" }, "geometry": { "type": "Point", "coordinates": [ -86.75056, 33.57195 ] } },
{ "type": "Feature", "properties": { "COMPONENT": "Army Guard", "SITE_NAME": "NG Floyd Edsall Training Center", "JOINT_BASE": "N\/A", "STATE_TERR": "Nevada", "COUNTRY": "United States", "OPER_STAT": "Active" }, "geometry": { "type": "Point", "coordinates": [ -115.05811, 36.27786 ] } },
{ "type": "Feature", "properties": { "COMPONENT": "Army Guard", "SITE_NAME": "NG Salina KS Training Center", "JOINT_BASE": "N\/A", "STATE_TERR": "Kansas", "COUNTRY": "United States", "OPER_STAT": "Active" }, "geometry": { "type": "Point", "coordinates": [ -97.6381, 38.78464 ] } },
{ "type": "Feature", "properties": { "COMPONENT": "Army Guard", "SITE_NAME": "Kansas", "JOINT_BASE": "N\/A", "STATE_TERR": "Kansas", "COUNTRY": "United States", "OPER_STAT": "Active" }, "geometry": { "type": "Point", "coordinates": [ -95.68498, 39.02112 ] } },
{ "type": "Feature", "properties": { "COMPONENT": "Army Guard", "SITE_NAME": "NG Gulfport AVCRAD", "JOINT_BASE": "N\/A", "STATE_TERR": "Mississippi", "COUNTRY": "United States", "OPER_STAT": "Active" }, "geometry": { "type": "Point", "coordinates": [ -89.06276, 30.41585 ] } },
{ "type": "Feature", "properties": { "COMPONENT": "Army Guard", "SITE_NAME": "NG Camp Murray", "JOINT_BASE": "N\/A", "STATE_TERR": "Washington", "COUNTRY": "United States", "OPER_STAT": "Active" }, "geometry": { "type": "Point", "coordinates": [ -122.56115, 47.11757 ] } },
{ "type": "Feature", "properties": { "COMPONENT": "Army Guard", "SITE_NAME": "Camp Rapid", "JOINT_BASE": "N\/A", "STATE_TERR": "South Dakota", "COUNTRY": "United States", "OPER_STAT": "Active" }, "geometry": { "type": "Point", "coordinates": [ -103.27008, 44.08145 ] } },
{ "type": "Feature", "properties": { "COMPONENT": "Army Guard", "SITE_NAME": "MTA Camp Rilea", "JOINT_BASE": "N\/A", "STATE_TERR": "Oregon", "COUNTRY": "United States", "OPER_STAT": "Active" }, "geometry": { "type": "Point", "coordinates": [ -123.93237, 46.12363 ] } },
{ "type": "Feature", "properties": { "COMPONENT": "Army Guard", "SITE_NAME": "NG Oklahoma Military Department", "JOINT_BASE": "N\/A", "STATE_TERR": "Oklahoma", "COUNTRY": "United States", "OPER_STAT": "Active" }, "geometry": { "type": "Point", "coordinates": [ -97.46907, 35.50412 ] } },
{ "type": "Feature", "properties": { "COMPONENT": "Army Guard", "SITE_NAME": "NG Duluth Armory", "JOINT_BASE": "N\/A", "STATE_TERR": "Minnesota", "COUNTRY": "United States", "OPER_STAT": "Active" }, "geometry": { "type": "Point", "coordinates": [ -92.15879, 46.83341 ] } },
{ "type": "Feature", "properties": { "COMPONENT": "Army Guard", "SITE_NAME": "Camp Perry Joint Training Center", "JOINT_BASE": "N\/A", "STATE_TERR": "Ohio", "COUNTRY": "United States", "OPER_STAT": "Active" }, "geometry": { "type": "Point", "coordinates": [ -83.0279, 41.55014 ] } },
{ "type": "Feature", "properties": { "COMPONENT": "Army Guard", "SITE_NAME": "NG TS Keaukaha Mil Res", "JOINT_BASE": "N\/A", "STATE_TERR": "Hawaii", "COUNTRY": "United States", "OPER_STAT": "Active" }, "geometry": { "type": "Point", "coordinates": [ -155.05122, 19.71314 ] } },
{ "type": "Feature", "properties": { "COMPONENT": "Army Guard", "SITE_NAME": "Camp Joseph T Robinson", "JOINT_BASE": "N\/A", "STATE_TERR": "Arkansas", "COUNTRY": "United States", "OPER_STAT": "Active" }, "geometry": { "type": "Point", "coordinates": [ -92.2843, 34.82185 ] } },
{ "type": "Feature", "properties": { "COMPONENT": "Army Guard", "SITE_NAME": "W.H. Ford Regional Training Ctr", "JOINT_BASE": "N\/A", "STATE_TERR": "Kentucky", "COUNTRY": "United States", "OPER_STAT": "Active" }, "geometry": { "type": "Point", "coordinates": [ -87.20109, 37.27625 ] } },
{ "type": "Feature", "properties": { "COMPONENT": "Army Guard", "SITE_NAME": "NG Las Cruces", "JOINT_BASE": "N\/A", "STATE_TERR": "New Mexico", "COUNTRY": "United States", "OPER_STAT": "Active" }, "geometry": { "type": "Point", "coordinates": [ -106.9331, 32.27799 ] } },
{ "type": "Feature", "properties": { "COMPONENT": "Army Guard", "SITE_NAME": "Camp Grafton", "JOINT_BASE": "N\/A", "STATE_TERR": "North Dakota", "COUNTRY": "United States", "OPER_STAT": "Active" }, "geometry": { "type": "Point", "coordinates": [ -98.91985, 48.05638 ] } },
{ "type": "Feature", "properties": { "COMPONENT": "Army Guard", "SITE_NAME": "NG Camp Adair Corvallis", "JOINT_BASE": "N\/A", "STATE_TERR": "Oregon", "COUNTRY": "United States", "OPER_STAT": "Active" }, "geometry": { "type": "Point", "coordinates": [ -123.26092, 44.71717 ] } },
{ "type": "Feature", "properties": { "COMPONENT": "Army Guard", "SITE_NAME": "NG Bend Cotef", "JOINT_BASE": "N\/A", "STATE_TERR": "Oregon", "COUNTRY": "United States", "OPER_STAT": "Active" }, "geometry": { "type": "Point", "coordinates": [ -121.12954, 44.02894 ] } },
{ "type": "Feature", "properties": { "COMPONENT": "Army Guard", "SITE_NAME": "NG Fort Worth - Shoreview", "JOINT_BASE": "N\/A", "STATE_TERR": "Texas", "COUNTRY": "United States", "OPER_STAT": "Active" }, "geometry": { "type": "Point", "coordinates": [ -97.45828, 32.77771 ] } },
{ "type": "Feature", "properties": { "COMPONENT": "Army Guard", "SITE_NAME": "MTC-H Camp Roberts", "JOINT_BASE": "N\/A", "STATE_TERR": "California", "COUNTRY": "United States", "OPER_STAT": "Active" }, "geometry": { "type": "Point", "coordinates": [ -120.74375, 35.79367 ] } },
{ "type": "Feature", "properties": { "COMPONENT": "Army Guard", "SITE_NAME": "NG Camp Mabry", "JOINT_BASE": "N\/A", "STATE_TERR": "Texas", "COUNTRY": "United States", "OPER_STAT": "Active" }, "geometry": { "type": "Point", "coordinates": [ -97.76007, 30.31224 ] } },
{ "type": "Feature", "properties": { "COMPONENT": "Army Guard", "SITE_NAME": "NG St Cloud Armory", "JOINT_BASE": "N\/A", "STATE_TERR": "Minnesota", "COUNTRY": "United States", "OPER_STAT": "Active" }, "geometry": { "type": "Point", "coordinates": [ -94.17746, 45.56493 ] } },
{ "type": "Feature", "properties": { "COMPONENT": "Army Guard", "SITE_NAME": "NG Rio Rancho TS", "JOINT_BASE": "N\/A", "STATE_TERR": "New Mexico", "COUNTRY": "United States", "OPER_STAT": "Active" }, "geometry": { "type": "Point", "coordinates": [ -106.65354, 35.36979 ] } },
{ "type": "Feature", "properties": { "COMPONENT": "Army Guard", "SITE_NAME": "NG Bremerton", "JOINT_BASE": "N\/A", "STATE_TERR": "Washington", "COUNTRY": "United States", "OPER_STAT": "Active" }, "geometry": { "type": "Point", "coordinates": [ -122.68248, 47.55295 ] } },
{ "type": "Feature", "properties": { "COMPONENT": "Army Guard", "SITE_NAME": "NG Atlanta - Confederate Ave", "JOINT_BASE": "N\/A", "STATE_TERR": "Georgia", "COUNTRY": "United States", "OPER_STAT": "Active" }, "geometry": { "type": "Point", "coordinates": [ -84.35922, 33.72189 ] } },
{ "type": "Feature", "properties": { "COMPONENT": "Army Guard", "SITE_NAME": "NG Esler Field", "JOINT_BASE": "N\/A", "STATE_TERR": "Louisiana", "COUNTRY": "United States", "OPER_STAT": "Active" }, "geometry": { "type": "Point", "coordinates": [ -92.31141, 31.3996 ] } },
{ "type": "Feature", "properties": { "COMPONENT": "Army Guard", "SITE_NAME": "NG Fort Ruger", "JOINT_BASE": "N\/A", "STATE_TERR": "Hawaii", "COUNTRY": "United States", "OPER_STAT": "Active" }, "geometry": { "type": "Point", "coordinates": [ -157.80447, 21.26153 ] } },
{ "type": "Feature", "properties": { "COMPONENT": "Army Guard", "SITE_NAME": "NG River Road Training Site", "JOINT_BASE": "N\/A", "STATE_TERR": "Delaware", "COUNTRY": "United States", "OPER_STAT": "Active" }, "geometry": { "type": "Point", "coordinates": [ -75.60874, 39.63627 ] } },
{ "type": "Feature", "properties": { "COMPONENT": "Army Guard", "SITE_NAME": "NG Sparta Armory", "JOINT_BASE": "N\/A", "STATE_TERR": "Illinois", "COUNTRY": "United States", "OPER_STAT": "Active" }, "geometry": { "type": "Point", "coordinates": [ -89.71385, 38.14556 ] } },
{ "type": "Feature", "properties": { "COMPONENT": "Army Guard", "SITE_NAME": "NG Hollidaysburg", "JOINT_BASE": "N\/A", "STATE_TERR": "Pennsylvania", "COUNTRY": "United States", "OPER_STAT": "Active" }, "geometry": { "type": "Point", "coordinates": [ -78.41492, 40.43895 ] } },
{ "type": "Feature", "properties": { "COMPONENT": "Army Guard", "SITE_NAME": "MTA Camp Edwards", "JOINT_BASE": "N\/A", "STATE_TERR": "Massachusetts", "COUNTRY": "United States", "OPER_STAT": "Active" }, "geometry": { "type": "Point", "coordinates": [ -70.54383, 41.71871 ] } },
{ "type": "Feature", "properties": { "COMPONENT": "Army Guard", "SITE_NAME": "NG Macon RTI", "JOINT_BASE": "N\/A", "STATE_TERR": "Georgia", "COUNTRY": "United States", "OPER_STAT": "Active" }, "geometry": { "type": "Point", "coordinates": [ -83.60641, 32.8602 ] } },
{ "type": "Feature", "properties": { "COMPONENT": "Army Guard", "SITE_NAME": "Marseilles (MTA Training Area)", "JOINT_BASE": "N\/A", "STATE_TERR": "Illinois", "COUNTRY": "United States", "OPER_STAT": "Active" }, "geometry": { "type": "Point", "coordinates": [ -88.67639, 41.26844 ] } },
{ "type": "Feature", "properties": { "COMPONENT": "Army Guard", "SITE_NAME": "Camp Smith", "JOINT_BASE": "N\/A", "STATE_TERR": "New York", "COUNTRY": "United States", "OPER_STAT": "Active" }, "geometry": { "type": "Point", "coordinates": [ -73.94091, 41.30119 ] } },
{ "type": "Feature", "properties": { "COMPONENT": "Army Guard", "SITE_NAME": "NG Helena Aviation RC- AASF", "JOINT_BASE": "N\/A", "STATE_TERR": "Montana", "COUNTRY": "United States", "OPER_STAT": "Active" }, "geometry": { "type": "Point", "coordinates": [ -111.97022, 46.60824 ] } },
{ "type": "Feature", "properties": { "COMPONENT": "Army Guard", "SITE_NAME": "NG Bismarck RJB Complex", "JOINT_BASE": "N\/A", "STATE_TERR": "North Dakota", "COUNTRY": "United States", "OPER_STAT": "Active" }, "geometry": { "type": "Point", "coordinates": [ -100.72232, 46.8305 ] } },
{ "type": "Feature", "properties": { "COMPONENT": "Army Guard", "SITE_NAME": "VTS Catoosa", "JOINT_BASE": "N\/A", "STATE_TERR": "Georgia", "COUNTRY": "United States", "OPER_STAT": "Active" }, "geometry": { "type": "Point", "coordinates": [ -85.05907, 34.93224 ] } },
{ "type": "Feature", "properties": { "COMPONENT": "Army Guard", "SITE_NAME": "NG MTA Clarks Hill Reservation", "JOINT_BASE": "N\/A", "STATE_TERR": "South Carolina", "COUNTRY": "United States", "OPER_STAT": "Active" }, "geometry": { "type": "Point", "coordinates": [ -82.27783, 33.7924 ] } },
{ "type": "Feature", "properties": { "COMPONENT": "Army Guard", "SITE_NAME": "Camp Swift", "JOINT_BASE": "N\/A", "STATE_TERR": "Texas", "COUNTRY": "United States", "OPER_STAT": "Active" }, "geometry": { "type": "Point", "coordinates": [ -97.31473, 30.21913 ] } },
{ "type": "Feature", "properties": { "COMPONENT": "Army Guard", "SITE_NAME": "Thunderbird Youth Academy", "JOINT_BASE": "N\/A", "STATE_TERR": "Oklahoma", "COUNTRY": "United States", "OPER_STAT": "Active" }, "geometry": { "type": "Point", "coordinates": [ -95.30848, 36.29976 ] } },
{ "type": "Feature", "properties": { "COMPONENT": "Army Guard", "SITE_NAME": "NG Camp Bowie (State)", "JOINT_BASE": "N\/A", "STATE_TERR": "Texas", "COUNTRY": "United States", "OPER_STAT": "Active" }, "geometry": { "type": "Point", "coordinates": [ -98.95707, 31.65861 ] } },
{ "type": "Feature", "properties": { "COMPONENT": "Army Guard", "SITE_NAME": "NG Martindale - AASF", "JOINT_BASE": "N\/A", "STATE_TERR": "Texas", "COUNTRY": "United States", "OPER_STAT": "Active" }, "geometry": { "type": "Point", "coordinates": [ -98.37928, 29.43499 ] } },
{ "type": "Feature", "properties": { "COMPONENT": "Army Guard", "SITE_NAME": "NG McNary Field Salem AASF", "JOINT_BASE": "N\/A", "STATE_TERR": "Oregon", "COUNTRY": "United States", "OPER_STAT": "Active" }, "geometry": { "type": "Point", "coordinates": [ -123.00002, 44.91461 ] } },
{ "type": "Feature", "properties": { "COMPONENT": "Army Guard", "SITE_NAME": "Camp Minden TS", "JOINT_BASE": "N\/A", "STATE_TERR": "Louisiana", "COUNTRY": "United States", "OPER_STAT": "Active" }, "geometry": { "type": "Point", "coordinates": [ -93.41683, 32.5735 ] } },
{ "type": "Feature", "properties": { "COMPONENT": "Army Guard", "SITE_NAME": "NG Rochester NGA and OMS 2", "JOINT_BASE": "N\/A", "STATE_TERR": "Minnesota", "COUNTRY": "United States", "OPER_STAT": "Active" }, "geometry": { "type": "Point", "coordinates": [ -92.43074, 43.99678 ] } },
{ "type": "Feature", "properties": { "COMPONENT": "Army Guard", "SITE_NAME": "Camp Ripley", "JOINT_BASE": "N\/A", "STATE_TERR": "Minnesota", "COUNTRY": "United States", "OPER_STAT": "Active" }, "geometry": { "type": "Point", "coordinates": [ -94.35779, 46.08102 ] } },
{ "type": "Feature", "properties": { "COMPONENT": "Army Guard", "SITE_NAME": "Camp Dodge Johnston TS", "JOINT_BASE": "N\/A", "STATE_TERR": "Iowa", "COUNTRY": "United States", "OPER_STAT": "Active" }, "geometry": { "type": "Point", "coordinates": [ -93.70209, 41.70093 ] } },
{ "type": "Feature", "properties": { "COMPONENT": "Army Guard", "SITE_NAME": "NG Camp Withycombe Clackamas", "JOINT_BASE": "N\/A", "STATE_TERR": "Oregon", "COUNTRY": "United States", "OPER_STAT": "Active" }, "geometry": { "type": "Point", "coordinates": [ -122.55888, 45.411 ] } },
{ "type": "Feature", "properties": { "COMPONENT": "Army Guard", "SITE_NAME": "NG Saint George\/FMS", "JOINT_BASE": "N\/A", "STATE_TERR": "Utah", "COUNTRY": "United States", "OPER_STAT": "Active" }, "geometry": { "type": "Point", "coordinates": [ -113.54662, 37.03651 ] } },
{ "type": "Feature", "properties": { "COMPONENT": "Army Guard", "SITE_NAME": "NG Rosemount Armory", "JOINT_BASE": "N\/A", "STATE_TERR": "Minnesota", "COUNTRY": "United States", "OPER_STAT": "Active" }, "geometry": { "type": "Point", "coordinates": [ -93.12741, 44.74807 ] } },
{ "type": "Feature", "properties": { "COMPONENT": "Army Guard", "SITE_NAME": "MTA Fort Wm Henry Harrison", "JOINT_BASE": "N\/A", "STATE_TERR": "Montana", "COUNTRY": "United States", "OPER_STAT": "Active" }, "geometry": { "type": "Point", "coordinates": [ -112.09768, 46.61695 ] } },
{ "type": "Feature", "properties": { "COMPONENT": "Army Guard", "SITE_NAME": "NG Silver Bell Army Heliport", "JOINT_BASE": "N\/A", "STATE_TERR": "Arizona", "COUNTRY": "United States", "OPER_STAT": "Active" }, "geometry": { "type": "Point", "coordinates": [ -111.33129, 32.5203 ] } },
{ "type": "Feature", "properties": { "COMPONENT": "Army Guard", "SITE_NAME": "NG Mitchell TS", "JOINT_BASE": "N\/A", "STATE_TERR": "South Dakota", "COUNTRY": "United States", "OPER_STAT": "Active" }, "geometry": { "type": "Point", "coordinates": [ -98.04027, 43.762 ] } },
{ "type": "Feature", "properties": { "COMPONENT": "Army Guard", "SITE_NAME": "NG TS MD Los Alamitos", "JOINT_BASE": "N\/A", "STATE_TERR": "California", "COUNTRY": "United States", "OPER_STAT": "Active" }, "geometry": { "type": "Point", "coordinates": [ -118.05453, 33.79465 ] } },
{ "type": "Feature", "properties": { "COMPONENT": "Army Guard", "SITE_NAME": "NG Shelbyville", "JOINT_BASE": "N\/A", "STATE_TERR": "Indiana", "COUNTRY": "United States", "OPER_STAT": "Active" }, "geometry": { "type": "Point", "coordinates": [ -85.81251, 39.57855 ] } },
{ "type": "Feature", "properties": { "COMPONENT": "Army Guard", "SITE_NAME": "NG Lansing Headquarters Complex", "JOINT_BASE": "N\/A", "STATE_TERR": "Michigan", "COUNTRY": "United States", "OPER_STAT": "Active" }, "geometry": { "type": "Point", "coordinates": [ -84.57154, 42.76751 ] } },
{ "type": "Feature", "properties": { "COMPONENT": "Army Guard", "SITE_NAME": "Camp Atterbury", "JOINT_BASE": "N\/A", "STATE_TERR": "Indiana", "COUNTRY": "United States", "OPER_STAT": "Active" }, "geometry": { "type": "Point", "coordinates": [ -86.02392, 39.35923 ] } },
{ "type": "Feature", "properties": { "COMPONENT": "Army Guard", "SITE_NAME": "Williamstown", "JOINT_BASE": "N\/A", "STATE_TERR": "West Virginia", "COUNTRY": "United States", "OPER_STAT": "Active" }, "geometry": { "type": "Point", "coordinates": [ -81.44137, 39.35484 ] } },
{ "type": "Feature", "properties": { "COMPONENT": "Army Guard", "SITE_NAME": "CTC Camp Dawson-Kingwood", "JOINT_BASE": "N\/A", "STATE_TERR": "West Virginia", "COUNTRY": "United States", "OPER_STAT": "Active" }, "geometry": { "type": "Point", "coordinates": [ -79.67354, 39.44605 ] } },
{ "type": "Feature", "properties": { "COMPONENT": "Army Guard", "SITE_NAME": "NG Youngstown TS", "JOINT_BASE": "N\/A", "STATE_TERR": "New York", "COUNTRY": "United States", "OPER_STAT": "Active" }, "geometry": { "type": "Point", "coordinates": [ -78.97271, 43.23754 ] } },
{ "type": "Feature", "properties": { "COMPONENT": "Army Guard", "SITE_NAME": "NG Lincoln AASF\/Readiness Center", "JOINT_BASE": "N\/A", "STATE_TERR": "Nebraska", "COUNTRY": "United States", "OPER_STAT": "Active" }, "geometry": { "type": "Point", "coordinates": [ -96.75457, 40.83671 ] } },
{ "type": "Feature", "properties": { "COMPONENT": "Army Guard", "SITE_NAME": "SMR Camp Beauregard", "JOINT_BASE": "N\/A", "STATE_TERR": "Louisiana", "COUNTRY": "United States", "OPER_STAT": "Active" }, "geometry": { "type": "Point", "coordinates": [ -92.39705, 31.37326 ] } },
{ "type": "Feature", "properties": { "COMPONENT": "Army Guard", "SITE_NAME": "NG Bergstrom - (Abia)", "JOINT_BASE": "N\/A", "STATE_TERR": "Texas", "COUNTRY": "United States", "OPER_STAT": "Active" }, "geometry": { "type": "Point", "coordinates": [ -97.66724, 30.19184 ] } },
{ "type": "Feature", "properties": { "COMPONENT": "Army Guard", "SITE_NAME": "NG Volkstone", "JOINT_BASE": "N\/A", "STATE_TERR": "West Virginia", "COUNTRY": "United States", "OPER_STAT": "Active" }, "geometry": { "type": "Point", "coordinates": [ -79.67334, 39.45274 ] } },
{ "type": "Feature", "properties": { "COMPONENT": "Army Guard", "SITE_NAME": "NG Bethel Arm OMS", "JOINT_BASE": "N\/A", "STATE_TERR": "Alaska", "COUNTRY": "United States", "OPER_STAT": "Inactive" }, "geometry": { "type": "Point", "coordinates": [ -161.76754, 60.79552 ] } },
{ "type": "Feature", "properties": { "COMPONENT": "Army Guard", "SITE_NAME": "NG Kalaeloa", "JOINT_BASE": "N\/A", "STATE_TERR": "Hawaii", "COUNTRY": "United States", "OPER_STAT": "Active" }, "geometry": { "type": "Point", "coordinates": [ -158.06639, 21.31893 ] } },
{ "type": "Feature", "properties": { "COMPONENT": "Army Guard", "SITE_NAME": "NG Alcantra Armory Complex", "JOINT_BASE": "N\/A", "STATE_TERR": "Alaska", "COUNTRY": "United States", "OPER_STAT": "Active" }, "geometry": { "type": "Point", "coordinates": [ -149.36133, 61.60242 ] } },
{ "type": "Feature", "properties": { "COMPONENT": "Army Guard", "SITE_NAME": "Fort Pickett, ARNG MTC", "JOINT_BASE": "N\/A", "STATE_TERR": "Virginia", "COUNTRY": "United States", "OPER_STAT": "Active" }, "geometry": { "type": "Point", "coordinates": [ -77.90735, 37.03551 ] } },
{ "type": "Feature", "properties": { "COMPONENT": "Army Guard", "SITE_NAME": "NG Camp Pendleton SMR", "JOINT_BASE": "N\/A", "STATE_TERR": "Virginia", "COUNTRY": "United States", "OPER_STAT": "Active" }, "geometry": { "type": "Point", "coordinates": [ -75.97885, 36.81859 ] } },
{ "type": "Feature", "properties": { "COMPONENT": "Army Guard", "SITE_NAME": "ITC Camp San Luis Obisbo", "JOINT_BASE": "N\/A", "STATE_TERR": "California", "COUNTRY": "United States", "OPER_STAT": "Active" }, "geometry": { "type": "Point", "coordinates": [ -120.72976, 35.32466 ] } },
{ "type": "Feature", "properties": { "COMPONENT": "Army Guard", "SITE_NAME": "MTA Camp Butner", "JOINT_BASE": "N\/A", "STATE_TERR": "North Carolina", "COUNTRY": "United States", "OPER_STAT": "Active" }, "geometry": { "type": "Point", "coordinates": [ -78.79468, 36.18313 ] } },
{ "type": "Feature", "properties": { "COMPONENT": "Army Guard", "SITE_NAME": "NG Bethany Beach TS", "JOINT_BASE": "N\/A", "STATE_TERR": "Delaware", "COUNTRY": "United States", "OPER_STAT": "Active" }, "geometry": { "type": "Point", "coordinates": [ -75.06566, 38.54614 ] } },
{ "type": "Feature", "properties": { "COMPONENT": "Army Guard", "SITE_NAME": "NG Beightler Armory", "JOINT_BASE": "N\/A", "STATE_TERR": "Ohio", "COUNTRY": "United States", "OPER_STAT": "Active" }, "geometry": { "type": "Point", "coordinates": [ -83.06759, 40.08947 ] } },
{ "type": "Feature", "properties": { "COMPONENT": "Army Guard", "SITE_NAME": "NG Picacho Aviation TS", "JOINT_BASE": "N\/A", "STATE_TERR": "Arizona", "COUNTRY": "United States", "OPER_STAT": "Active" }, "geometry": { "type": "Point", "coordinates": [ -111.48694, 32.66305 ] } },
{ "type": "Feature", "properties": { "COMPONENT": "Army Guard", "SITE_NAME": "NG Oglethorpe Armory", "JOINT_BASE": "N\/A", "STATE_TERR": "Georgia", "COUNTRY": "United States", "OPER_STAT": "Active" }, "geometry": { "type": "Point", "coordinates": [ -84.30886, 33.61712 ] } },
{ "type": "Feature", "properties": { "COMPONENT": "Army Guard", "SITE_NAME": "Stones Ranch Military Reservation", "JOINT_BASE": "N\/A", "STATE_TERR": "Connecticut", "COUNTRY": "United States", "OPER_STAT": "Active" }, "geometry": { "type": "Point", "coordinates": [ -72.27484, 41.36782 ] } },
{ "type": "Feature", "properties": { "COMPONENT": "Army Guard", "SITE_NAME": "NG Camp Rell", "JOINT_BASE": "N\/A", "STATE_TERR": "Connecticut", "COUNTRY": "United States", "OPER_STAT": "Active" }, "geometry": { "type": "Point", "coordinates": [ -72.19044, 41.32843 ] } },
{ "type": "Feature", "properties": { "COMPONENT": "Army Guard", "SITE_NAME": "NG MTA Camp Curtis Guil", "JOINT_BASE": "N\/A", "STATE_TERR": "Massachusetts", "COUNTRY": "United States", "OPER_STAT": "Active" }, "geometry": { "type": "Point", "coordinates": [ -71.07946, 42.52786 ] } },
{ "type": "Feature", "properties": { "COMPONENT": "Army Guard", "SITE_NAME": "NG McConnelsville TS", "JOINT_BASE": "N\/A", "STATE_TERR": "Ohio", "COUNTRY": "United States", "OPER_STAT": "Active" }, "geometry": { "type": "Point", "coordinates": [ -81.83747, 39.66673 ] } },
{ "type": "Feature", "properties": { "COMPONENT": "Army Guard", "SITE_NAME": "NG Buckeye", "JOINT_BASE": "N\/A", "STATE_TERR": "Arizona", "COUNTRY": "United States", "OPER_STAT": "Active" }, "geometry": { "type": "Point", "coordinates": [ -112.60167, 33.46439 ] } },
{ "type": "Feature", "properties": { "COMPONENT": "Army Guard", "SITE_NAME": "Camp Navajo", "JOINT_BASE": "N\/A", "STATE_TERR": "Arizona", "COUNTRY": "United States", "OPER_STAT": "Active" }, "geometry": { "type": "Point", "coordinates": [ -111.85089, 35.19491 ] } },
{ "type": "Feature", "properties": { "COMPONENT": "Army Guard", "SITE_NAME": "NG Florence Military Reservation", "JOINT_BASE": "N\/A", "STATE_TERR": "Arizona", "COUNTRY": "United States", "OPER_STAT": "Active" }, "geometry": { "type": "Point", "coordinates": [ -111.31965, 33.15655 ] } },
{ "type": "Feature", "properties": { "COMPONENT": "Army Guard", "SITE_NAME": "Camp Williams Tomah MTA", "JOINT_BASE": "N\/A", "STATE_TERR": "Wisconsin", "COUNTRY": "United States", "OPER_STAT": "Active" }, "geometry": { "type": "Point", "coordinates": [ -90.26375, 43.92452 ] } },
{ "type": "Feature", "properties": { "COMPONENT": "Army Guard", "SITE_NAME": "NG Springfield (TS Camp Lincoln)", "JOINT_BASE": "N\/A", "STATE_TERR": "Illinois", "COUNTRY": "United States", "OPER_STAT": "Active" }, "geometry": { "type": "Point", "coordinates": [ -89.6707, 39.81801 ] } },
{ "type": "Feature", "properties": { "COMPONENT": "Army Guard", "SITE_NAME": "NG Camp Sherman TS", "JOINT_BASE": "N\/A", "STATE_TERR": "Ohio", "COUNTRY": "United States", "OPER_STAT": "Active" }, "geometry": { "type": "Point", "coordinates": [ -82.96455, 39.35782 ] } },
{ "type": "Feature", "properties": { "COMPONENT": "Army Guard", "SITE_NAME": "NG Westminster TS", "JOINT_BASE": "N\/A", "STATE_TERR": "Vermont", "COUNTRY": "United States", "OPER_STAT": "Active" }, "geometry": { "type": "Point", "coordinates": [ -72.45538, 43.08643 ] } },
{ "type": "Feature", "properties": { "COMPONENT": "Army Guard", "SITE_NAME": "NG Ethan Allen AFB MTA", "JOINT_BASE": "N\/A", "STATE_TERR": "Vermont", "COUNTRY": "United States", "OPER_STAT": "Active" }, "geometry": { "type": "Point", "coordinates": [ -73.15704, 44.49909 ] } },
{ "type": "Feature", "properties": { "COMPONENT": "Army Guard", "SITE_NAME": "NG Rickenbacker (MTA)", "JOINT_BASE": "N\/A", "STATE_TERR": "Ohio", "COUNTRY": "United States", "OPER_STAT": "Active" }, "geometry": { "type": "Point", "coordinates": [ -82.95051, 39.80763 ] } },
{ "type": "Feature", "properties": { "COMPONENT": "Army Guard", "SITE_NAME": "NG Nashville", "JOINT_BASE": "N\/A", "STATE_TERR": "Tennessee", "COUNTRY": "United States", "OPER_STAT": "Active" }, "geometry": { "type": "Point", "coordinates": [ -86.75806, 36.09854 ] } },
{ "type": "Feature", "properties": { "COMPONENT": "Army Guard", "SITE_NAME": "NG Havre de Grace Military Reservation", "JOINT_BASE": "N\/A", "STATE_TERR": "Maryland", "COUNTRY": "United States", "OPER_STAT": "Active" }, "geometry": { "type": "Point", "coordinates": [ -76.1038, 39.53177 ] } },
{ "type": "Feature", "properties": { "COMPONENT": "Army Guard", "SITE_NAME": "NG Orchard Mates Boise", "JOINT_BASE": "N\/A", "STATE_TERR": "Idaho", "COUNTRY": "United States", "OPER_STAT": "Active" }, "geometry": { "type": "Point", "coordinates": [ -116.12875, 43.21527 ] } },
{ "type": "Feature", "properties": { "COMPONENT": "Army Guard", "SITE_NAME": "Orchard Range TS Boise", "JOINT_BASE": "N\/A", "STATE_TERR": "Idaho", "COUNTRY": "United States", "OPER_STAT": "Active" }, "geometry": { "type": "Point", "coordinates": [ -116.23201, 43.55735 ] } },
{ "type": "Feature", "properties": { "COMPONENT": "Army Guard", "SITE_NAME": "NG MTA Limestone Hills", "JOINT_BASE": "N\/A", "STATE_TERR": "Montana", "COUNTRY": "United States", "OPER_STAT": "Active" }, "geometry": { "type": "Point", "coordinates": [ -111.57886, 46.27381 ] } },
{ "type": "Feature", "properties": { "COMPONENT": "Army Guard", "SITE_NAME": "NG Camp Hartell", "JOINT_BASE": "N\/A", "STATE_TERR": "Connecticut", "COUNTRY": "United States", "OPER_STAT": "Active" }, "geometry": { "type": "Point", "coordinates": [ -72.66509, 41.94173 ] } },
{ "type": "Feature", "properties": { "COMPONENT": "Army Guard", "SITE_NAME": "NG MTA Camp Fretterd", "JOINT_BASE": "N\/A", "STATE_TERR": "Maryland", "COUNTRY": "United States", "OPER_STAT": "Active" }, "geometry": { "type": "Point", "coordinates": [ -76.83892, 39.50009 ] } },
{ "type": "Feature", "properties": { "COMPONENT": "Army Guard", "SITE_NAME": "NG TS Ethan Allen Range", "JOINT_BASE": "N\/A", "STATE_TERR": "Vermont", "COUNTRY": "United States", "OPER_STAT": "Active" }, "geometry": { "type": "Point", "coordinates": [ -72.95066, 44.48002 ] } },
{ "type": "Feature", "properties": { "COMPONENT": "Army Guard", "SITE_NAME": "NG Arden Hills Army TS", "JOINT_BASE": "N\/A", "STATE_TERR": "Minnesota", "COUNTRY": "United States", "OPER_STAT": "Active" }, "geometry": { "type": "Point", "coordinates": [ -93.15607, 45.08184 ] } },
{ "type": "Feature", "properties": { "COMPONENT": "Army Guard", "SITE_NAME": "NG Carville Gillis Long Center", "JOINT_BASE": "N\/A", "STATE_TERR": "Louisiana", "COUNTRY": "United States", "OPER_STAT": "Active" }, "geometry": { "type": "Point", "coordinates": [ -91.12582, 30.19593 ] } },
{ "type": "Feature", "properties": { "COMPONENT": "Army Guard", "SITE_NAME": "NG Lawrenceville", "JOINT_BASE": "N\/A", "STATE_TERR": "New Jersey", "COUNTRY": "United States", "OPER_STAT": "Active" }, "geometry": { "type": "Point", "coordinates": [ -74.74562, 40.2719 ] } },
{ "type": "Feature", "properties": { "COMPONENT": "Army Guard", "SITE_NAME": "CTA Camp McCain", "JOINT_BASE": "N\/A", "STATE_TERR": "Mississippi", "COUNTRY": "United States", "OPER_STAT": "Active" }, "geometry": { "type": "Point", "coordinates": [ -89.70913, 33.70126 ] } },
{ "type": "Feature", "properties": { "COMPONENT": "Army Guard", "SITE_NAME": "MTA Camp Shelby", "JOINT_BASE": "N\/A", "STATE_TERR": "Mississippi", "COUNTRY": "United States", "OPER_STAT": "Active" }, "geometry": { "type": "Point", "coordinates": [ -89.24294, 31.18695 ] } },
{ "type": "Feature", "properties": { "COMPONENT": "Army Guard", "SITE_NAME": "NG Frankfort Boone NG Center", "JOINT_BASE": "N\/A", "STATE_TERR": "Kentucky", "COUNTRY": "United States", "OPER_STAT": "Active" }, "geometry": { "type": "Point", "coordinates": [ -84.89935, 38.18738 ] } },
{ "type": "Feature", "properties": { "COMPONENT": "Army Guard", "SITE_NAME": "NG Lane County MD\/Fms", "JOINT_BASE": "N\/A", "STATE_TERR": "Oregon", "COUNTRY": "United States", "OPER_STAT": "Active" }, "geometry": { "type": "Point", "coordinates": [ -122.97655, 44.06574 ] } },
{ "type": "Feature", "properties": { "COMPONENT": "Army Guard", "SITE_NAME": "MTA Camp Crowder Neosho", "JOINT_BASE": "N\/A", "STATE_TERR": "Missouri", "COUNTRY": "United States", "OPER_STAT": "Active" }, "geometry": { "type": "Point", "coordinates": [ -94.33838, 36.81809 ] } },
{ "type": "Feature", "properties": { "COMPONENT": "Army Guard", "SITE_NAME": "NG Ayer\/Devens", "JOINT_BASE": "N\/A", "STATE_TERR": "Massachusetts", "COUNTRY": "United States", "OPER_STAT": "Active" }, "geometry": { "type": "Point", "coordinates": [ -71.57988, 42.54966 ] } },
{ "type": "Feature", "properties": { "COMPONENT": "Army Guard", "SITE_NAME": "NG VTS Milan", "JOINT_BASE": "N\/A", "STATE_TERR": "Tennessee", "COUNTRY": "United States", "OPER_STAT": "Active" }, "geometry": { "type": "Point", "coordinates": [ -88.66772, 35.85001 ] } },
{ "type": "Feature", "properties": { "COMPONENT": "Army Guard", "SITE_NAME": "NG New Hampshire TS", "JOINT_BASE": "N\/A", "STATE_TERR": "New Hampshire", "COUNTRY": "United States", "OPER_STAT": "Active" }, "geometry": { "type": "Point", "coordinates": [ -71.12709, 43.27242 ] } },
{ "type": "Feature", "properties": { "COMPONENT": "Army Guard", "SITE_NAME": "NG Cambridge Springs", "JOINT_BASE": "N\/A", "STATE_TERR": "Pennsylvania", "COUNTRY": "United States", "OPER_STAT": "Active" }, "geometry": { "type": "Point", "coordinates": [ -80.04805, 41.79416 ] } },
{ "type": "Feature", "properties": { "COMPONENT": "Army Guard", "SITE_NAME": "NG MTA Gunpowder Military Reserva", "JOINT_BASE": "N\/A", "STATE_TERR": "Maryland", "COUNTRY": "United States", "OPER_STAT": "Active" }, "geometry": { "type": "Point", "coordinates": [ -76.50618, 39.42994 ] } },
{ "type": "Feature", "properties": { "COMPONENT": "Army Guard", "SITE_NAME": "NG West Camp", "JOINT_BASE": "N\/A", "STATE_TERR": "South Dakota", "COUNTRY": "United States", "OPER_STAT": "Active" }, "geometry": { "type": "Point", "coordinates": [ -103.30799, 44.07329 ] } },
{ "type": "Feature", "properties": { "COMPONENT": "Army Guard", "SITE_NAME": "NG AASF Byrd Field", "JOINT_BASE": "N\/A", "STATE_TERR": "Virginia", "COUNTRY": "United States", "OPER_STAT": "Active" }, "geometry": { "type": "Point", "coordinates": [ -77.31353, 37.49317 ] } },
{ "type": "Feature", "properties": { "COMPONENT": "Army Guard", "SITE_NAME": "NG VTS Smyrna", "JOINT_BASE": "N\/A", "STATE_TERR": "Tennessee", "COUNTRY": "United States", "OPER_STAT": "Active" }, "geometry": { "type": "Point", "coordinates": [ -86.50302, 36.0178 ] } },
{ "type": "Feature", "properties": { "COMPONENT": "Army Guard", "SITE_NAME": "Fort McClellan ARNG Training Center", "JOINT_BASE": "N\/A", "STATE_TERR": "Alabama", "COUNTRY": "United States", "OPER_STAT": "Active" }, "geometry": { "type": "Point", "coordinates": [ -85.79662, 33.73147 ] } },
{ "type": "Feature", "properties": { "COMPONENT": "Army Guard", "SITE_NAME": "NG R W Shepherd Hope Hull", "JOINT_BASE": "N\/A", "STATE_TERR": "Alabama", "COUNTRY": "United States", "OPER_STAT": "Active" }, "geometry": { "type": "Point", "coordinates": [ -86.39343, 32.28613 ] } },
{ "type": "Feature", "properties": { "COMPONENT": "Army Guard", "SITE_NAME": "NG Bangor TS", "JOINT_BASE": "N\/A", "STATE_TERR": "Maine", "COUNTRY": "United States", "OPER_STAT": "Active" }, "geometry": { "type": "Point", "coordinates": [ -68.80804, 44.80736 ] } },
{ "type": "Feature", "properties": { "COMPONENT": "Army Guard", "SITE_NAME": "NG Greenlief TS\/UTES", "JOINT_BASE": "N\/A", "STATE_TERR": "Nebraska", "COUNTRY": "United States", "OPER_STAT": "Active" }, "geometry": { "type": "Point", "coordinates": [ -98.28132, 40.56665 ] } },
{ "type": "Feature", "properties": { "COMPONENT": "Army Guard", "SITE_NAME": "NG Grayling Airfield", "JOINT_BASE": "N\/A", "STATE_TERR": "Michigan", "COUNTRY": "United States", "OPER_STAT": "Active" }, "geometry": { "type": "Point", "coordinates": [ -84.72056, 44.67389 ] } },
{ "type": "Feature", "properties": { "COMPONENT": "Army Guard", "SITE_NAME": "NG Camp Villere", "JOINT_BASE": "N\/A", "STATE_TERR": "Louisiana", "COUNTRY": "United States", "OPER_STAT": "Active" }, "geometry": { "type": "Point", "coordinates": [ -89.81436, 30.31131 ] } },
{ "type": "Feature", "properties": { "COMPONENT": "Army Guard", "SITE_NAME": "NG Hammond Airport", "JOINT_BASE": "N\/A", "STATE_TERR": "Louisiana", "COUNTRY": "United States", "OPER_STAT": "Active" }, "geometry": { "type": "Point", "coordinates": [ -90.40782, 30.52518 ] } },
{ "type": "Feature", "properties": { "COMPONENT": "Army Guard", "SITE_NAME": "NG Biak Training Center", "JOINT_BASE": "N\/A", "STATE_TERR": "Oregon", "COUNTRY": "United States", "OPER_STAT": "Active" }, "geometry": { "type": "Point", "coordinates": [ -121.10551, 44.25572 ] } },
{ "type": "Feature", "properties": { "COMPONENT": "Army Guard", "SITE_NAME": "Ravenna Training and Log Site", "JOINT_BASE": "N\/A", "STATE_TERR": "Ohio", "COUNTRY": "United States", "OPER_STAT": "Active" }, "geometry": { "type": "Point", "coordinates": [ -80.97801, 41.20591 ] } },
{ "type": "Feature", "properties": { "COMPONENT": "Army Guard", "SITE_NAME": "NG Lexington AASF  1", "JOINT_BASE": "N\/A", "STATE_TERR": "Oklahoma", "COUNTRY": "United States", "OPER_STAT": "Active" }, "geometry": { "type": "Point", "coordinates": [ -97.22829, 35.02284 ] } },
{ "type": "Feature", "properties": { "COMPONENT": "Army Guard", "SITE_NAME": "NG Norman CSMS", "JOINT_BASE": "N\/A", "STATE_TERR": "Oklahoma", "COUNTRY": "United States", "OPER_STAT": "Active" }, "geometry": { "type": "Point", "coordinates": [ -97.48126, 35.26403 ] } },
{ "type": "Feature", "properties": { "COMPONENT": "Army Guard", "SITE_NAME": "Camp Gruber", "JOINT_BASE": "N\/A", "STATE_TERR": "Oklahoma", "COUNTRY": "United States", "OPER_STAT": "Active" }, "geometry": { "type": "Point", "coordinates": [ -95.13916, 35.71755 ] } },
{ "type": "Feature", "properties": { "COMPONENT": "Army Guard", "SITE_NAME": "NG Jackson Barracks", "JOINT_BASE": "N\/A", "STATE_TERR": "Louisiana", "COUNTRY": "United States", "OPER_STAT": "Active" }, "geometry": { "type": "Point", "coordinates": [ -90.00468, 29.96105 ] } },
{ "type": "Feature", "properties": { "COMPONENT": "Army Guard", "SITE_NAME": "NG Mead TS\/FMS 06\/UTES", "JOINT_BASE": "N\/A", "STATE_TERR": "Nebraska", "COUNTRY": "United States", "OPER_STAT": "Active" }, "geometry": { "type": "Point", "coordinates": [ -96.43797, 41.19361 ] } },
{ "type": "Feature", "properties": { "COMPONENT": "Army Guard", "SITE_NAME": "NG Macon TS", "JOINT_BASE": "N\/A", "STATE_TERR": "Missouri", "COUNTRY": "United States", "OPER_STAT": "Active" }, "geometry": { "type": "Point", "coordinates": [ -92.50083, 39.64732 ] } },
{ "type": "Feature", "properties": { "COMPONENT": "Army Guard", "SITE_NAME": "NG TS Clark Natl Forest Wappapello", "JOINT_BASE": "N\/A", "STATE_TERR": "Missouri", "COUNTRY": "United States", "OPER_STAT": "Active" }, "geometry": { "type": "Point", "coordinates": [ -90.29613, 36.89955 ] } },
{ "type": "Feature", "properties": { "COMPONENT": "Army Guard", "SITE_NAME": "NG Beauregard Training Range", "JOINT_BASE": "N\/A", "STATE_TERR": "Louisiana", "COUNTRY": "United States", "OPER_STAT": "Active" }, "geometry": { "type": "Point", "coordinates": [ -92.2955, 31.43758 ] } },
{ "type": "Feature", "properties": { "COMPONENT": "Army Guard", "SITE_NAME": "NG Bog Brook Riley TS", "JOINT_BASE": "N\/A", "STATE_TERR": "Maine", "COUNTRY": "United States", "OPER_STAT": "Active" }, "geometry": { "type": "Point", "coordinates": [ -70.93952, 44.39385 ] } },
{ "type": "Feature", "properties": { "COMPONENT": "Army Guard", "SITE_NAME": "NG Hollis Plains TS", "JOINT_BASE": "N\/A", "STATE_TERR": "Maine", "COUNTRY": "United States", "OPER_STAT": "Active" }, "geometry": { "type": "Point", "coordinates": [ -70.66371, 43.66873 ] } },
{ "type": "Feature", "properties": { "COMPONENT": "Army Guard", "SITE_NAME": "NG Auburn TS", "JOINT_BASE": "N\/A", "STATE_TERR": "Maine", "COUNTRY": "United States", "OPER_STAT": "Active" }, "geometry": { "type": "Point", "coordinates": [ -70.2794, 44.08542 ] } },
{ "type": "Feature", "properties": { "COMPONENT": "Army Guard", "SITE_NAME": "Camp Maxey", "JOINT_BASE": "N\/A", "STATE_TERR": "Texas", "COUNTRY": "United States", "OPER_STAT": "Active" }, "geometry": { "type": "Point", "coordinates": [ -95.56019, 33.799 ] } },
{ "type": "Feature", "properties": { "COMPONENT": "Army Guard", "SITE_NAME": "NG Camp Bowie - Musgrave", "JOINT_BASE": "N\/A", "STATE_TERR": "Texas", "COUNTRY": "United States", "OPER_STAT": "Active" }, "geometry": { "type": "Point", "coordinates": [ -98.9052, 31.59095 ] } },
{ "type": "Feature", "properties": { "COMPONENT": "Army Guard", "SITE_NAME": "Fort Wolters", "JOINT_BASE": "N\/A", "STATE_TERR": "Texas", "COUNTRY": "United States", "OPER_STAT": "Active" }, "geometry": { "type": "Point", "coordinates": [ -98.04038, 32.84567 ] } },
{ "type": "Feature", "properties": { "COMPONENT": "Army Guard", "SITE_NAME": "NG Saginaw", "JOINT_BASE": "N\/A", "STATE_TERR": "Texas", "COUNTRY": "United States", "OPER_STAT": "Active" }, "geometry": { "type": "Point", "coordinates": [ -97.3508, 32.85457 ] } },
{ "type": "Feature", "properties": { "COMPONENT": "Army Guard", "SITE_NAME": "NG Sioux Falls UTES", "JOINT_BASE": "N\/A", "STATE_TERR": "South Dakota", "COUNTRY": "United States", "OPER_STAT": "Active" }, "geometry": { "type": "Point", "coordinates": [ -96.67785, 43.58927 ] } },
{ "type": "Feature", "properties": { "COMPONENT": "Army Guard", "SITE_NAME": "Camp Ashland", "JOINT_BASE": "N\/A", "STATE_TERR": "Nebraska", "COUNTRY": "United States", "OPER_STAT": "Active" }, "geometry": { "type": "Point", "coordinates": [ -96.3369, 41.07946 ] } },
{ "type": "Feature", "properties": { "COMPONENT": "Army Guard", "SITE_NAME": "NG Grand Island AASF\/RC", "JOINT_BASE": "N\/A", "STATE_TERR": "Nebraska", "COUNTRY": "United States", "OPER_STAT": "Active" }, "geometry": { "type": "Point", "coordinates": [ -98.29879, 40.96182 ] } },
{ "type": "Feature", "properties": { "COMPONENT": "Army Guard", "SITE_NAME": "General Lucius D. Clay National Guard Center", "JOINT_BASE": "N\/A", "STATE_TERR": "Georgia", "COUNTRY": "United States", "OPER_STAT": "Active" }, "geometry": { "type": "Point", "coordinates": [ -84.53017, 33.91345 ] } },
{ "type": "Feature", "properties": { "COMPONENT": "Army Guard", "SITE_NAME": "MTA Camp Santiago Rq", "JOINT_BASE": "N\/A", "STATE_TERR": "Puerto Rico", "COUNTRY": "Puerto Rico", "OPER_STAT": "Active" }, "geometry": { "type": "Point", "coordinates": [ -66.28883, 18.0067 ] } },
{ "type": "Feature", "properties": { "COMPONENT": "Army Guard", "SITE_NAME": "CTC Fort Custer Trng Center", "JOINT_BASE": "N\/A", "STATE_TERR": "Michigan", "COUNTRY": "United States", "OPER_STAT": "Active" }, "geometry": { "type": "Point", "coordinates": [ -85.30292, 42.33428 ] } },
{ "type": "Feature", "properties": { "COMPONENT": "Army Guard", "SITE_NAME": "Fort Indiantown Gap", "JOINT_BASE": "N\/A", "STATE_TERR": "Pennsylvania", "COUNTRY": "United States", "OPER_STAT": "Active" }, "geometry": { "type": "Point", "coordinates": [ -76.56956, 40.43833 ] } },
{ "type": "Feature", "properties": { "COMPONENT": "Army Guard", "SITE_NAME": "NG Spring City Readiness Center", "JOINT_BASE": "N\/A", "STATE_TERR": "Pennsylvania", "COUNTRY": "United States", "OPER_STAT": "Active" }, "geometry": { "type": "Point", "coordinates": [ -75.55758, 40.18906 ] } },
{ "type": "Feature", "properties": { "COMPONENT": "Army Guard", "SITE_NAME": "NG Indianapolis 38 ID", "JOINT_BASE": "N\/A", "STATE_TERR": "Indiana", "COUNTRY": "United States", "OPER_STAT": "Active" }, "geometry": { "type": "Point", "coordinates": [ -86.22827, 39.74403 ] } },
{ "type": "Feature", "properties": { "COMPONENT": "Army Guard", "SITE_NAME": "MTC-H Camp Grayling", "JOINT_BASE": "N\/A", "STATE_TERR": "Michigan", "COUNTRY": "United States", "OPER_STAT": "Active" }, "geometry": { "type": "Point", "coordinates": [ -84.77481, 44.63228 ] } },
{ "type": "Feature", "properties": { "COMPONENT": "Army Guard", "SITE_NAME": "NG Johnson City Gray", "JOINT_BASE": "N\/A", "STATE_TERR": "Tennessee", "COUNTRY": "United States", "OPER_STAT": "Active" }, "geometry": { "type": "Point", "coordinates": [ -82.48678, 36.41935 ] } },
{ "type": "Feature", "properties": { "COMPONENT": "Army Guard", "SITE_NAME": "NG Jackson Airport Armory", "JOINT_BASE": "N\/A", "STATE_TERR": "Tennessee", "COUNTRY": "United States", "OPER_STAT": "Active" }, "geometry": { "type": "Point", "coordinates": [ -88.91187, 35.59816 ] } },
{ "type": "Feature", "properties": { "COMPONENT": "Army Guard", "SITE_NAME": "Baton Rouge LSU South Campus", "JOINT_BASE": "N\/A", "STATE_TERR": "Louisiana", "COUNTRY": "United States", "OPER_STAT": "Active" }, "geometry": { "type": "Point", "coordinates": [ -91.14324, 30.35677 ] } },
{ "type": "Feature", "properties": { "COMPONENT": "Army Guard", "SITE_NAME": "Graterford FMS", "JOINT_BASE": "N\/A", "STATE_TERR": "Pennsylvania", "COUNTRY": "United States", "OPER_STAT": "Active" }, "geometry": { "type": "Point", "coordinates": [ -75.429, 40.21345 ] } },
{ "type": "Feature", "properties": { "COMPONENT": "Army Guard", "SITE_NAME": "NG Springfield AVCRAD (New)", "JOINT_BASE": "N\/A", "STATE_TERR": "Missouri", "COUNTRY": "United States", "OPER_STAT": "Active" }, "geometry": { "type": "Point", "coordinates": [ -93.39096, 37.25328 ] } },
{ "type": "Feature", "properties": { "COMPONENT": "Army Guard", "SITE_NAME": "Muskogee MD", "JOINT_BASE": "N\/A", "STATE_TERR": "Oklahoma", "COUNTRY": "United States", "OPER_STAT": "Active" }, "geometry": { "type": "Point", "coordinates": [ -95.37366, 35.65902 ] } },
{ "type": "Feature", "properties": { "COMPONENT": "Army Guard", "SITE_NAME": "NG SMD", "JOINT_BASE": "N\/A", "STATE_TERR": "Alabama", "COUNTRY": "United States", "OPER_STAT": "Active" }, "geometry": { "type": "Point", "coordinates": [ -86.26215, 32.40659 ] } },
{ "type": "Feature", "properties": { "COMPONENT": "Army Guard", "SITE_NAME": "Elkins MD", "JOINT_BASE": "N\/A", "STATE_TERR": "West Virginia", "COUNTRY": "United States", "OPER_STAT": "Active" }, "geometry": { "type": "Point", "coordinates": [ -79.97939, 38.95511 ] } },
{ "type": "Feature", "properties": { "COMPONENT": "Army Guard", "SITE_NAME": "Pelham Range Training Site - Fort McClellan", "JOINT_BASE": "N\/A", "STATE_TERR": "Alabama", "COUNTRY": "United States", "OPER_STAT": "Active" }, "geometry": { "type": "Point", "coordinates": [ -85.89804, 33.72587 ] } },
{ "type": "Feature", "properties": { "COMPONENT": "Army Guard", "SITE_NAME": "NG Fort Allen", "JOINT_BASE": "N\/A", "STATE_TERR": "Puerto Rico", "COUNTRY": "Puerto Rico", "OPER_STAT": "Active" }, "geometry": { "type": "Point", "coordinates": [ -66.50152, 18.00449 ] } },
{ "type": "Feature", "properties": { "COMPONENT": "Army Guard", "SITE_NAME": "NG Raleigh", "JOINT_BASE": "N\/A", "STATE_TERR": "North Carolina", "COUNTRY": "United States", "OPER_STAT": "Active" }, "geometry": { "type": "Point", "coordinates": [ -78.71077, 35.81112 ] } },
{ "type": "Feature", "properties": { "COMPONENT": "Army Guard", "SITE_NAME": "NG TS Camp Johnson", "JOINT_BASE": "N\/A", "STATE_TERR": "Vermont", "COUNTRY": "United States", "OPER_STAT": "Active" }, "geometry": { "type": "Point", "coordinates": [ -73.16452, 44.49958 ] } },
{ "type": "Feature", "properties": { "COMPONENT": "Army Guard", "SITE_NAME": "NG Camp Fogarty TS", "JOINT_BASE": "N\/A", "STATE_TERR": "Rhode Island", "COUNTRY": "United States", "OPER_STAT": "Active" }, "geometry": { "type": "Point", "coordinates": [ -71.49915, 41.61746 ] } },
{ "type": "Feature", "properties": { "COMPONENT": "Army Guard", "SITE_NAME": "NG NGTC Sea Girt NJ", "JOINT_BASE": "N\/A", "STATE_TERR": "New Jersey", "COUNTRY": "United States", "OPER_STAT": "Active" }, "geometry": { "type": "Point", "coordinates": [ -74.04253, 40.1279 ] } },
{ "type": "Feature", "properties": { "COMPONENT": "Army Guard", "SITE_NAME": "Jackson County", "JOINT_BASE": "N\/A", "STATE_TERR": "West Virginia", "COUNTRY": "United States", "OPER_STAT": "Active" }, "geometry": { "type": "Point", "coordinates": [ -81.83635, 38.89595 ] } },
{ "type": "Feature", "properties": { "COMPONENT": "Army Guard", "SITE_NAME": "Knightstown", "JOINT_BASE": "N\/A", "STATE_TERR": "Indiana", "COUNTRY": "United States", "OPER_STAT": "Active" }, "geometry": { "type": "Point", "coordinates": [ -85.51933, 39.76993 ] } },
{ "type": "Feature", "properties": { "COMPONENT": "Army Guard", "SITE_NAME": "NG Guam Barrigada Complex", "JOINT_BASE": "N\/A", "STATE_TERR": "Guam", "COUNTRY": "Guam", "OPER_STAT": "Active" }, "geometry": { "type": "Point", "coordinates": [ 144.80933, 13.47401 ] } },
{ "type": "Feature", "properties": { "COMPONENT": "Army Guard", "SITE_NAME": "NG MTA Camp Clark Nevada", "JOINT_BASE": "N\/A", "STATE_TERR": "Missouri", "COUNTRY": "United States", "OPER_STAT": "Active" }, "geometry": { "type": "Point", "coordinates": [ -94.29236, 37.8214 ] } },
{ "type": "Feature", "properties": { "COMPONENT": "Army Active", "SITE_NAME": "Fort Detrick Forest Glen Annex", "JOINT_BASE": "N\/A", "STATE_TERR": "Maryland", "COUNTRY": "United States", "OPER_STAT": "Active" }, "geometry": { "type": "Point", "coordinates": [ -77.05477, 39.0064 ] } },
{ "type": "Feature", "properties": { "COMPONENT": "Army Active", "SITE_NAME": "Fort Detrick Glen Haven Annex", "JOINT_BASE": "N\/A", "STATE_TERR": "Maryland", "COUNTRY": "United States", "OPER_STAT": "Active" }, "geometry": { "type": "Point", "coordinates": [ -77.04201, 39.03352 ] } },
{ "type": "Feature", "properties": { "COMPONENT": "Army Active", "SITE_NAME": "Blossom Point Research Facility", "JOINT_BASE": "N\/A", "STATE_TERR": "Maryland", "COUNTRY": "United States", "OPER_STAT": "Active" }, "geometry": { "type": "Point", "coordinates": [ -77.09319, 38.42178 ] } },
{ "type": "Feature", "properties": { "COMPONENT": "Army Active", "SITE_NAME": "Fort De Russy", "JOINT_BASE": "N\/A", "STATE_TERR": "Hawaii", "COUNTRY": "United States", "OPER_STAT": "Active" }, "geometry": { "type": "Point", "coordinates": [ -157.83432, 21.28094 ] } },
{ "type": "Feature", "properties": { "COMPONENT": "Army Active", "SITE_NAME": "Kipapa Ammo Storage Site", "JOINT_BASE": "N\/A", "STATE_TERR": "Hawaii", "COUNTRY": "United States", "OPER_STAT": "Inactive" }, "geometry": { "type": "Point", "coordinates": [ -157.99945, 21.44823 ] } },
{ "type": "Feature", "properties": { "COMPONENT": "Army Active", "SITE_NAME": "Waianae-Kai Military Reservation", "JOINT_BASE": "N\/A", "STATE_TERR": "Hawaii", "COUNTRY": "United States", "OPER_STAT": "Active" }, "geometry": { "type": "Point", "coordinates": [ -158.19006, 21.44637 ] } },
{ "type": "Feature", "properties": { "COMPONENT": "Army Active", "SITE_NAME": "USA Field Station Kunia", "JOINT_BASE": "N\/A", "STATE_TERR": "Hawaii", "COUNTRY": "United States", "OPER_STAT": "Active" }, "geometry": { "type": "Point", "coordinates": [ -158.05458, 21.47231 ] } },
{ "type": "Feature", "properties": { "COMPONENT": "Army Active", "SITE_NAME": "Dillingham Mil Res", "JOINT_BASE": "N\/A", "STATE_TERR": "Hawaii", "COUNTRY": "United States", "OPER_STAT": "Active" }, "geometry": { "type": "Point", "coordinates": [ -158.12523, 21.57519 ] } },
{ "type": "Feature", "properties": { "COMPONENT": "Army Active", "SITE_NAME": "Aliamanu Military Reservation", "JOINT_BASE": "N\/A", "STATE_TERR": "Hawaii", "COUNTRY": "United States", "OPER_STAT": "Active" }, "geometry": { "type": "Point", "coordinates": [ -157.91239, 21.36021 ] } },
{ "type": "Feature", "properties": { "COMPONENT": "Army Active", "SITE_NAME": "Helemano Military Reservation", "JOINT_BASE": "N\/A", "STATE_TERR": "Hawaii", "COUNTRY": "United States", "OPER_STAT": "Active" }, "geometry": { "type": "Point", "coordinates": [ -158.01959, 21.53569 ] } },
{ "type": "Feature", "properties": { "COMPONENT": "Army Active", "SITE_NAME": "Kilauea Military Reserve", "JOINT_BASE": "N\/A", "STATE_TERR": "Hawaii", "COUNTRY": "United States", "OPER_STAT": "Active" }, "geometry": { "type": "Point", "coordinates": [ -155.27422, 19.43411 ] } },
{ "type": "Feature", "properties": { "COMPONENT": "Army Active", "SITE_NAME": "Kawaihae Military Reserve", "JOINT_BASE": "N\/A", "STATE_TERR": "Hawaii", "COUNTRY": "United States", "OPER_STAT": "Active" }, "geometry": { "type": "Point", "coordinates": [ -155.83, 20.03197 ] } },
{ "type": "Feature", "properties": { "COMPONENT": "Army Active", "SITE_NAME": "Pupukea Paalaa Uka Mil Road", "JOINT_BASE": "N\/A", "STATE_TERR": "Hawaii", "COUNTRY": "United States", "OPER_STAT": "Active" }, "geometry": { "type": "Point", "coordinates": [ -155.72337, 19.96952 ] } },
{ "type": "Feature", "properties": { "COMPONENT": "Army Active", "SITE_NAME": "Kahuku Training Area", "JOINT_BASE": "N\/A", "STATE_TERR": "Hawaii", "COUNTRY": "United States", "OPER_STAT": "Active" }, "geometry": { "type": "Point", "coordinates": [ -157.99383, 21.6685 ] } },
{ "type": "Feature", "properties": { "COMPONENT": "Army Active", "SITE_NAME": "US Army Garrison-Miami", "JOINT_BASE": "N\/A", "STATE_TERR": "Florida", "COUNTRY": "United States", "OPER_STAT": "Active" }, "geometry": { "type": "Point", "coordinates": [ -80.33763, 25.80117 ] } },
{ "type": "Feature", "properties": { "COMPONENT": "Army Active", "SITE_NAME": "Fort Campbell TN", "JOINT_BASE": "N\/A", "STATE_TERR": "Tennessee", "COUNTRY": "United States", "OPER_STAT": "Active" }, "geometry": { "type": "Point", "coordinates": [ -87.45482, 36.63733 ] } },
{ "type": "Feature", "properties": { "COMPONENT": "Army Active", "SITE_NAME": "Silas B. Hays", "JOINT_BASE": "N\/A", "STATE_TERR": "California", "COUNTRY": "United States", "OPER_STAT": "Active" }, "geometry": { "type": "Point", "coordinates": [ -121.76506, 36.63282 ] } },
{ "type": "Feature", "properties": { "COMPONENT": "Army Active", "SITE_NAME": "Highbluff Stagefield", "JOINT_BASE": "N\/A", "STATE_TERR": "Alabama", "COUNTRY": "United States", "OPER_STAT": "Active" }, "geometry": { "type": "Point", "coordinates": [ -85.73626, 31.15029 ] } },
{ "type": "Feature", "properties": { "COMPONENT": "Army Active", "SITE_NAME": "Destin Moreno Point", "JOINT_BASE": "N\/A", "STATE_TERR": "Florida", "COUNTRY": "United States", "OPER_STAT": "Active" }, "geometry": { "type": "Point", "coordinates": [ -86.49905, 30.41094 ] } },
{ "type": "Feature", "properties": { "COMPONENT": "Army Active", "SITE_NAME": "Fort Campbell", "JOINT_BASE": "N\/A", "STATE_TERR": "Kentucky", "COUNTRY": "United States", "OPER_STAT": "Active" }, "geometry": { "type": "Point", "coordinates": [ -87.49, 36.67 ] } },
{ "type": "Feature", "properties": { "COMPONENT": "Army Active", "SITE_NAME": "Lake Of The Ozarks Recreation", "JOINT_BASE": "N\/A", "STATE_TERR": "Missouri", "COUNTRY": "United States", "OPER_STAT": "Active" }, "geometry": { "type": "Point", "coordinates": [ -92.75, 38.01 ] } },
{ "type": "Feature", "properties": { "COMPONENT": "Army Active", "SITE_NAME": "Military Ocean Terminal Concord", "JOINT_BASE": "N\/A", "STATE_TERR": "California", "COUNTRY": "United States", "OPER_STAT": "Active" }, "geometry": { "type": "Point", "coordinates": [ -122.0333, 38.0555 ] } },
{ "type": "Feature", "properties": { "COMPONENT": "Army Active", "SITE_NAME": "Rivanna Station", "JOINT_BASE": "N\/A", "STATE_TERR": "Virginia", "COUNTRY": "United States", "OPER_STAT": "Active" }, "geometry": { "type": "Point", "coordinates": [ -78.47726, 38.02915 ] } },
{ "type": "Feature", "properties": { "COMPONENT": "Army Active", "SITE_NAME": "Charles Melvin Price Spt Ctr", "JOINT_BASE": "N\/A", "STATE_TERR": "Illinois", "COUNTRY": "United States", "OPER_STAT": "Inactive" }, "geometry": { "type": "Point", "coordinates": [ -90.17556, 38.69236 ] } },
{ "type": "Feature", "properties": { "COMPONENT": "Army Active", "SITE_NAME": "Jefferson Proving Ground", "JOINT_BASE": "N\/A", "STATE_TERR": "Indiana", "COUNTRY": "United States", "OPER_STAT": "Inactive" }, "geometry": { "type": "Point", "coordinates": [ -85.42, 38.8 ] } },
{ "type": "Feature", "properties": { "COMPONENT": "Army Active", "SITE_NAME": "Skelly Stagefield", "JOINT_BASE": "N\/A", "STATE_TERR": "Alabama", "COUNTRY": "United States", "OPER_STAT": "Active" }, "geometry": { "type": "Point", "coordinates": [ -86.12834, 31.28587 ] } },
{ "type": "Feature", "properties": { "COMPONENT": "Army Active", "SITE_NAME": "Hunt Stagefield", "JOINT_BASE": "N\/A", "STATE_TERR": "Alabama", "COUNTRY": "United States", "OPER_STAT": "Active" }, "geometry": { "type": "Point", "coordinates": [ -85.57997, 31.38018 ] } },
{ "type": "Feature", "properties": { "COMPONENT": "Army Active", "SITE_NAME": "Fort Benning", "JOINT_BASE": "N\/A", "STATE_TERR": "Alabama", "COUNTRY": "United States", "OPER_STAT": "Active" }, "geometry": { "type": "Point", "coordinates": [ -84.94, 32.28 ] } },
{ "type": "Feature", "properties": { "COMPONENT": "Army Active", "SITE_NAME": "Fort Bliss AAA Ranges", "JOINT_BASE": "N\/A", "STATE_TERR": "New Mexico", "COUNTRY": "United States", "OPER_STAT": "Active" }, "geometry": { "type": "Point", "coordinates": [ -106.50314, 32.14538 ] } },
{ "type": "Feature", "properties": { "COMPONENT": "Army Active", "SITE_NAME": "Allen Stagefield", "JOINT_BASE": "N\/A", "STATE_TERR": "Alabama", "COUNTRY": "United States", "OPER_STAT": "Active" }, "geometry": { "type": "Point", "coordinates": [ -85.65068, 31.23043 ] } },
{ "type": "Feature", "properties": { "COMPONENT": "Army Active", "SITE_NAME": "Toth Stagefield", "JOINT_BASE": "N\/A", "STATE_TERR": "Alabama", "COUNTRY": "United States", "OPER_STAT": "Active" }, "geometry": { "type": "Point", "coordinates": [ -85.55933, 31.22758 ] } },
{ "type": "Feature", "properties": { "COMPONENT": "Army Active", "SITE_NAME": "Shell Basefield", "JOINT_BASE": "N\/A", "STATE_TERR": "Alabama", "COUNTRY": "United States", "OPER_STAT": "Active" }, "geometry": { "type": "Point", "coordinates": [ -85.84875, 31.36328 ] } },
{ "type": "Feature", "properties": { "COMPONENT": "Army Active", "SITE_NAME": "Goldberg Stagefield", "JOINT_BASE": "N\/A", "STATE_TERR": "Alabama", "COUNTRY": "United States", "OPER_STAT": "Active" }, "geometry": { "type": "Point", "coordinates": [ -85.46309, 31.41541 ] } },
{ "type": "Feature", "properties": { "COMPONENT": "Army Active", "SITE_NAME": "Cairns Basefield", "JOINT_BASE": "N\/A", "STATE_TERR": "Alabama", "COUNTRY": "United States", "OPER_STAT": "Active" }, "geometry": { "type": "Point", "coordinates": [ -85.71374, 31.27719 ] } },
{ "type": "Feature", "properties": { "COMPONENT": "Army Active", "SITE_NAME": "England Authority", "JOINT_BASE": "N\/A", "STATE_TERR": "Louisiana", "COUNTRY": "United States", "OPER_STAT": "Active" }, "geometry": { "type": "Point", "coordinates": [ -92.53937, 31.33494 ] } },
{ "type": "Feature", "properties": { "COMPONENT": "Army Active", "SITE_NAME": "Brown Stagefield", "JOINT_BASE": "N\/A", "STATE_TERR": "Alabama", "COUNTRY": "United States", "OPER_STAT": "Active" }, "geometry": { "type": "Point", "coordinates": [ -85.97191, 31.38588 ] } },
{ "type": "Feature", "properties": { "COMPONENT": "Army Active", "SITE_NAME": "Stinson Stagefield", "JOINT_BASE": "N\/A", "STATE_TERR": "Alabama", "COUNTRY": "United States", "OPER_STAT": "Active" }, "geometry": { "type": "Point", "coordinates": [ -86.01349, 31.35932 ] } },
{ "type": "Feature", "properties": { "COMPONENT": "Army Active", "SITE_NAME": "Arlington National Cemetery", "JOINT_BASE": "N\/A", "STATE_TERR": "Virginia", "COUNTRY": "United States", "OPER_STAT": "Active" }, "geometry": { "type": "Point", "coordinates": [ -77.07, 38.88 ] } },
{ "type": "Feature", "properties": { "COMPONENT": "Army Active", "SITE_NAME": "Fort Benning GA", "JOINT_BASE": "N\/A", "STATE_TERR": "Georgia", "COUNTRY": "United States", "OPER_STAT": "Active" }, "geometry": { "type": "Point", "coordinates": [ -84.83, 32.4 ] } },
{ "type": "Feature", "properties": { "COMPONENT": "Army Active", "SITE_NAME": "Fort Benjamin Harrison", "JOINT_BASE": "N\/A", "STATE_TERR": "Indiana", "COUNTRY": "United States", "OPER_STAT": "Inactive" }, "geometry": { "type": "Point", "coordinates": [ -85.9947, 39.86286 ] } },
{ "type": "Feature", "properties": { "COMPONENT": "Army Active", "SITE_NAME": "Defense Distrib Depot Susq", "JOINT_BASE": "N\/A", "STATE_TERR": "Pennsylvania", "COUNTRY": "United States", "OPER_STAT": "Active" }, "geometry": { "type": "Point", "coordinates": [ -76.84, 40.21 ] } },
{ "type": "Feature", "properties": { "COMPONENT": "Army Active", "SITE_NAME": "Stratford Army Engine Plant", "JOINT_BASE": "N\/A", "STATE_TERR": "Connecticut", "COUNTRY": "United States", "OPER_STAT": "Inactive" }, "geometry": { "type": "Point", "coordinates": [ -73.13, 41.18 ] } },
{ "type": "Feature", "properties": { "COMPONENT": "Army Active", "SITE_NAME": "Ravenna AAP", "JOINT_BASE": "N\/A", "STATE_TERR": "Ohio", "COUNTRY": "United States", "OPER_STAT": "Inactive" }, "geometry": { "type": "Point", "coordinates": [ -81.08, 41.2 ] } },
{ "type": "Feature", "properties": { "COMPONENT": "Army Active", "SITE_NAME": "Joliet AAP Elwood", "JOINT_BASE": "N\/A", "STATE_TERR": "Illinois", "COUNTRY": "United States", "OPER_STAT": "Inactive" }, "geometry": { "type": "Point", "coordinates": [ -88.1, 41.37 ] } },
{ "type": "Feature", "properties": { "COMPONENT": "Army Active", "SITE_NAME": "Stewart Annex", "JOINT_BASE": "N\/A", "STATE_TERR": "New York", "COUNTRY": "United States", "OPER_STAT": "Active" }, "geometry": { "type": "Point", "coordinates": [ -74.09462, 41.49249 ] } },
{ "type": "Feature", "properties": { "COMPONENT": "Army Active", "SITE_NAME": "US Army Soldier Systems Center Natick", "JOINT_BASE": "N\/A", "STATE_TERR": "Massachusetts", "COUNTRY": "United States", "OPER_STAT": "Active" }, "geometry": { "type": "Point", "coordinates": [ -71.36228, 42.2893 ] } },
{ "type": "Feature", "properties": { "COMPONENT": "Army Active", "SITE_NAME": "Seneca Army Depot Activity", "JOINT_BASE": "N\/A", "STATE_TERR": "New York", "COUNTRY": "United States", "OPER_STAT": "Inactive" }, "geometry": { "type": "Point", "coordinates": [ -76.87, 42.74 ] } },
{ "type": "Feature", "properties": { "COMPONENT": "Army Active", "SITE_NAME": "Twin Cities AAP", "JOINT_BASE": "N\/A", "STATE_TERR": "Minnesota", "COUNTRY": "United States", "OPER_STAT": "Active" }, "geometry": { "type": "Point", "coordinates": [ -93.17, 45.09 ] } },
{ "type": "Feature", "properties": { "COMPONENT": "Army Active", "SITE_NAME": "Lake City AAP", "JOINT_BASE": "N\/A", "STATE_TERR": "Missouri", "COUNTRY": "United States", "OPER_STAT": "Active" }, "geometry": { "type": "Point", "coordinates": [ -94.25026, 39.09687 ] } },
{ "type": "Feature", "properties": { "COMPONENT": "Army Active", "SITE_NAME": "US Army Joint Sys Mfg Ctr Lima", "JOINT_BASE": "N\/A", "STATE_TERR": "Ohio", "COUNTRY": "United States", "OPER_STAT": "Active" }, "geometry": { "type": "Point", "coordinates": [ -84.13431, 40.70001 ] } },
{ "type": "Feature", "properties": { "COMPONENT": "Army Active", "SITE_NAME": "Pueblo Chemical Depot", "JOINT_BASE": "N\/A", "STATE_TERR": "Colorado", "COUNTRY": "United States", "OPER_STAT": "Active" }, "geometry": { "type": "Point", "coordinates": [ -104.33244, 38.31717 ] } },
{ "type": "Feature", "properties": { "COMPONENT": "Army Active", "SITE_NAME": "Tooele Army Depot", "JOINT_BASE": "N\/A", "STATE_TERR": "Utah", "COUNTRY": "United States", "OPER_STAT": "Active" }, "geometry": { "type": "Point", "coordinates": [ -112.41116, 40.52884 ] } },
{ "type": "Feature", "properties": { "COMPONENT": "Army Active", "SITE_NAME": "Holston AAP", "JOINT_BASE": "N\/A", "STATE_TERR": "Tennessee", "COUNTRY": "United States", "OPER_STAT": "Active" }, "geometry": { "type": "Point", "coordinates": [ -82.62677, 36.53865 ] } },
{ "type": "Feature", "properties": { "COMPONENT": "Army Active", "SITE_NAME": "Milan AAP", "JOINT_BASE": "N\/A", "STATE_TERR": "Tennessee", "COUNTRY": "United States", "OPER_STAT": "Active" }, "geometry": { "type": "Point", "coordinates": [ -88.71731, 35.87524 ] } },
{ "type": "Feature", "properties": { "COMPONENT": "Army Active", "SITE_NAME": "Military Ocean Tml Sunny Point", "JOINT_BASE": "N\/A", "STATE_TERR": "North Carolina", "COUNTRY": "United States", "OPER_STAT": "Active" }, "geometry": { "type": "Point", "coordinates": [ -77.96968, 33.99641 ] } },
{ "type": "Feature", "properties": { "COMPONENT": "Army Active", "SITE_NAME": "Yakima Training Center", "JOINT_BASE": "Joint Base Lewis - McChord", "STATE_TERR": "Washington", "COUNTRY": "United States", "OPER_STAT": "Active" }, "geometry": { "type": "Point", "coordinates": [ -120.16573, 46.74453 ] } },
{ "type": "Feature", "properties": { "COMPONENT": "Army Active", "SITE_NAME": "Fort Shafter", "JOINT_BASE": "N\/A", "STATE_TERR": "Hawaii", "COUNTRY": "United States", "OPER_STAT": "Active" }, "geometry": { "type": "Point", "coordinates": [ -157.88403, 21.34435 ] } },
{ "type": "Feature", "properties": { "COMPONENT": "Army Active", "SITE_NAME": "Pohakuloa Training Area", "JOINT_BASE": "N\/A", "STATE_TERR": "Hawaii", "COUNTRY": "United States", "OPER_STAT": "Active" }, "geometry": { "type": "Point", "coordinates": [ -155.61395, 19.68862 ] } },
{ "type": "Feature", "properties": { "COMPONENT": "Army Active", "SITE_NAME": "Schofield Bks Military Reservation", "JOINT_BASE": "N\/A", "STATE_TERR": "Hawaii", "COUNTRY": "United States", "OPER_STAT": "Active" }, "geometry": { "type": "Point", "coordinates": [ -158.09785, 21.49578 ] } },
{ "type": "Feature", "properties": { "COMPONENT": "Army Active", "SITE_NAME": "Wheeler Army Airfield", "JOINT_BASE": "N\/A", "STATE_TERR": "Hawaii", "COUNTRY": "United States", "OPER_STAT": "Active" }, "geometry": { "type": "Point", "coordinates": [ -158.03474, 21.47316 ] } },
{ "type": "Feature", "properties": { "COMPONENT": "Army Active", "SITE_NAME": "Anniston Army Depot", "JOINT_BASE": "N\/A", "STATE_TERR": "Alabama", "COUNTRY": "United States", "OPER_STAT": "Active" }, "geometry": { "type": "Point", "coordinates": [ -85.96911, 33.65302 ] } },
{ "type": "Feature", "properties": { "COMPONENT": "Army Active", "SITE_NAME": "Blue Grass Army Depot", "JOINT_BASE": "N\/A", "STATE_TERR": "Kentucky", "COUNTRY": "United States", "OPER_STAT": "Active" }, "geometry": { "type": "Point", "coordinates": [ -84.21762, 37.69898 ] } },
{ "type": "Feature", "properties": { "COMPONENT": "Army Active", "SITE_NAME": "Fort Bragg", "JOINT_BASE": "N\/A", "STATE_TERR": "North Carolina", "COUNTRY": "United States", "OPER_STAT": "Active" }, "geometry": { "type": "Point", "coordinates": [ -79.12419, 35.11352 ] } },
{ "type": "Feature", "properties": { "COMPONENT": "Army Active", "SITE_NAME": "Camp Mackall", "JOINT_BASE": "N\/A", "STATE_TERR": "North Carolina", "COUNTRY": "United States", "OPER_STAT": "Active" }, "geometry": { "type": "Point", "coordinates": [ -79.48156, 35.03016 ] } },
{ "type": "Feature", "properties": { "COMPONENT": "Army Active", "SITE_NAME": "Fort Gordon", "JOINT_BASE": "N\/A", "STATE_TERR": "Georgia", "COUNTRY": "United States", "OPER_STAT": "Active" }, "geometry": { "type": "Point", "coordinates": [ -82.2114, 33.36668 ] } },
{ "type": "Feature", "properties": { "COMPONENT": "Army Active", "SITE_NAME": "Fort Jackson", "JOINT_BASE": "N\/A", "STATE_TERR": "South Carolina", "COUNTRY": "United States", "OPER_STAT": "Active" }, "geometry": { "type": "Point", "coordinates": [ -80.82659, 34.04005 ] } },
{ "type": "Feature", "properties": { "COMPONENT": "Army Active", "SITE_NAME": "Fort Knox", "JOINT_BASE": "N\/A", "STATE_TERR": "Kentucky", "COUNTRY": "United States", "OPER_STAT": "Active" }, "geometry": { "type": "Point", "coordinates": [ -85.88306, 37.90675 ] } },
{ "type": "Feature", "properties": { "COMPONENT": "Army Active", "SITE_NAME": "Fort Rucker", "JOINT_BASE": "N\/A", "STATE_TERR": "Alabama", "COUNTRY": "United States", "OPER_STAT": "Active" }, "geometry": { "type": "Point", "coordinates": [ -85.74748, 31.40416 ] } },
{ "type": "Feature", "properties": { "COMPONENT": "Army Active", "SITE_NAME": "Redstone Arsenal", "JOINT_BASE": "N\/A", "STATE_TERR": "Alabama", "COUNTRY": "United States", "OPER_STAT": "Active" }, "geometry": { "type": "Point", "coordinates": [ -86.66158, 34.64845 ] } },
{ "type": "Feature", "properties": { "COMPONENT": "Army Active", "SITE_NAME": "Fort Bliss", "JOINT_BASE": "N\/A", "STATE_TERR": "Texas", "COUNTRY": "United States", "OPER_STAT": "Active" }, "geometry": { "type": "Point", "coordinates": [ -106.32936, 31.87384 ] } },
{ "type": "Feature", "properties": { "COMPONENT": "Army Active", "SITE_NAME": "Fort Hood", "JOINT_BASE": "N\/A", "STATE_TERR": "Texas", "COUNTRY": "United States", "OPER_STAT": "Active" }, "geometry": { "type": "Point", "coordinates": [ -97.76494, 31.2182 ] } },
{ "type": "Feature", "properties": { "COMPONENT": "Army Active", "SITE_NAME": "Fort Huachuca", "JOINT_BASE": "N\/A", "STATE_TERR": "Arizona", "COUNTRY": "United States", "OPER_STAT": "Active" }, "geometry": { "type": "Point", "coordinates": [ -110.32895, 31.5676 ] } },
{ "type": "Feature", "properties": { "COMPONENT": "Army Active", "SITE_NAME": "Fort Polk", "JOINT_BASE": "N\/A", "STATE_TERR": "Louisiana", "COUNTRY": "United States", "OPER_STAT": "Active" }, "geometry": { "type": "Point", "coordinates": [ -93.19995, 31.05803 ] } },
{ "type": "Feature", "properties": { "COMPONENT": "Army Active", "SITE_NAME": "Fort Sill", "JOINT_BASE": "N\/A", "STATE_TERR": "Oklahoma", "COUNTRY": "United States", "OPER_STAT": "Active" }, "geometry": { "type": "Point", "coordinates": [ -98.4834, 34.68231 ] } },
{ "type": "Feature", "properties": { "COMPONENT": "Army Active", "SITE_NAME": "Hawthorne Army Depot", "JOINT_BASE": "N\/A", "STATE_TERR": "Nevada", "COUNTRY": "United States", "OPER_STAT": "Active" }, "geometry": { "type": "Point", "coordinates": [ -118.65472, 38.54113 ] } },
{ "type": "Feature", "properties": { "COMPONENT": "Army Active", "SITE_NAME": "NTC and Fort Irwin", "JOINT_BASE": "N\/A", "STATE_TERR": "California", "COUNTRY": "United States", "OPER_STAT": "Active" }, "geometry": { "type": "Point", "coordinates": [ -116.63163, 35.37477 ] } },
{ "type": "Feature", "properties": { "COMPONENT": "Army Active", "SITE_NAME": "Pine Bluff Arsenal", "JOINT_BASE": "N\/A", "STATE_TERR": "Arkansas", "COUNTRY": "United States", "OPER_STAT": "Active" }, "geometry": { "type": "Point", "coordinates": [ -92.08516, 34.32597 ] } },
{ "type": "Feature", "properties": { "COMPONENT": "Army Active", "SITE_NAME": "Red River Army Depot", "JOINT_BASE": "N\/A", "STATE_TERR": "Texas", "COUNTRY": "United States", "OPER_STAT": "Active" }, "geometry": { "type": "Point", "coordinates": [ -94.3376, 33.42632 ] } },
{ "type": "Feature", "properties": { "COMPONENT": "Army Active", "SITE_NAME": "Sierra Army Depot", "JOINT_BASE": "N\/A", "STATE_TERR": "California", "COUNTRY": "United States", "OPER_STAT": "Active" }, "geometry": { "type": "Point", "coordinates": [ -120.14014, 40.2146 ] } },
{ "type": "Feature", "properties": { "COMPONENT": "Army Active", "SITE_NAME": "Yuma Proving Ground", "JOINT_BASE": "N\/A", "STATE_TERR": "Arizona", "COUNTRY": "United States", "OPER_STAT": "Active" }, "geometry": { "type": "Point", "coordinates": [ -114.35385, 32.88324 ] } },
{ "type": "Feature", "properties": { "COMPONENT": "Army Active", "SITE_NAME": "Fort A P Hill", "JOINT_BASE": "N\/A", "STATE_TERR": "Virginia", "COUNTRY": "United States", "OPER_STAT": "Active" }, "geometry": { "type": "Point", "coordinates": [ -77.27586, 38.11789 ] } },
{ "type": "Feature", "properties": { "COMPONENT": "Army Active", "SITE_NAME": "Fort George G Meade", "JOINT_BASE": "N\/A", "STATE_TERR": "Maryland", "COUNTRY": "United States", "OPER_STAT": "Active" }, "geometry": { "type": "Point", "coordinates": [ -76.74372, 39.10572 ] } },
{ "type": "Feature", "properties": { "COMPONENT": "Army Active", "SITE_NAME": "Fort Monmouth Main Post", "JOINT_BASE": "N\/A", "STATE_TERR": "New Jersey", "COUNTRY": "United States", "OPER_STAT": "Inactive" }, "geometry": { "type": "Point", "coordinates": [ -74.05132, 40.3116 ] } },
{ "type": "Feature", "properties": { "COMPONENT": "Army Active", "SITE_NAME": "Fort Lesley J McNair", "JOINT_BASE": "Joint Base Myer-Henderson Hall", "STATE_TERR": "District Of Columbia", "COUNTRY": "United States", "OPER_STAT": "Active" }, "geometry": { "type": "Point", "coordinates": [ -77.01667, 38.86697 ] } },
{ "type": "Feature", "properties": { "COMPONENT": "Army Active", "SITE_NAME": "Fort Myer", "JOINT_BASE": "Joint Base Myer-Henderson Hall", "STATE_TERR": "Virginia", "COUNTRY": "United States", "OPER_STAT": "Active" }, "geometry": { "type": "Point", "coordinates": [ -77.08081, 38.88076 ] } },
{ "type": "Feature", "properties": { "COMPONENT": "Army Active", "SITE_NAME": "Deseret Chemical Depot", "JOINT_BASE": "N\/A", "STATE_TERR": "Utah", "COUNTRY": "United States", "OPER_STAT": "Active" }, "geometry": { "type": "Point", "coordinates": [ -112.34285, 40.29685 ] } },
{ "type": "Feature", "properties": { "COMPONENT": "Army Active", "SITE_NAME": "Fort Lewis", "JOINT_BASE": "Joint Base Lewis - McChord", "STATE_TERR": "Washington", "COUNTRY": "United States", "OPER_STAT": "Active" }, "geometry": { "type": "Point", "coordinates": [ -122.57655, 47.07968 ] } },
{ "type": "Feature", "properties": { "COMPONENT": "Army Active", "SITE_NAME": "Iowa AAP", "JOINT_BASE": "N\/A", "STATE_TERR": "Iowa", "COUNTRY": "United States", "OPER_STAT": "Active" }, "geometry": { "type": "Point", "coordinates": [ -91.24316, 40.79255 ] } },
{ "type": "Feature", "properties": { "COMPONENT": "Army Active", "SITE_NAME": "Kansas AAP", "JOINT_BASE": "N\/A", "STATE_TERR": "Kansas", "COUNTRY": "United States", "OPER_STAT": "Inactive" }, "geometry": { "type": "Point", "coordinates": [ -95.18152, 37.28739 ] } },
{ "type": "Feature", "properties": { "COMPONENT": "Army Active", "SITE_NAME": "Newport Chem Depot", "JOINT_BASE": "N\/A", "STATE_TERR": "Indiana", "COUNTRY": "United States", "OPER_STAT": "Inactive" }, "geometry": { "type": "Point", "coordinates": [ -87.4224, 39.85017 ] } },
{ "type": "Feature", "properties": { "COMPONENT": "Army Active", "SITE_NAME": "Umatilla Chem Depot", "JOINT_BASE": "N\/A", "STATE_TERR": "Oregon", "COUNTRY": "United States", "OPER_STAT": "Active" }, "geometry": { "type": "Point", "coordinates": [ -119.44093, 45.83712 ] } },
{ "type": "Feature", "properties": { "COMPONENT": "Army Active", "SITE_NAME": "Tripler AMC", "JOINT_BASE": "N\/A", "STATE_TERR": "Hawaii", "COUNTRY": "United States", "OPER_STAT": "Active" }, "geometry": { "type": "Point", "coordinates": [ -157.88958, 21.36203 ] } },
{ "type": "Feature", "properties": { "COMPONENT": "Army Active", "SITE_NAME": "Fort Gillem", "JOINT_BASE": "N\/A", "STATE_TERR": "Georgia", "COUNTRY": "United States", "OPER_STAT": "Inactive" }, "geometry": { "type": "Point", "coordinates": [ -84.32851, 33.62236 ] } },
{ "type": "Feature", "properties": { "COMPONENT": "Army Active", "SITE_NAME": "Fort McPherson", "JOINT_BASE": "N\/A", "STATE_TERR": "Georgia", "COUNTRY": "United States", "OPER_STAT": "Inactive" }, "geometry": { "type": "Point", "coordinates": [ -84.34214, 33.61954 ] } },
{ "type": "Feature", "properties": { "COMPONENT": "Army Active", "SITE_NAME": "McAlester AAP", "JOINT_BASE": "N\/A", "STATE_TERR": "Oklahoma", "COUNTRY": "United States", "OPER_STAT": "Active" }, "geometry": { "type": "Point", "coordinates": [ -95.93961, 34.82206 ] } },
{ "type": "Feature", "properties": { "COMPONENT": "Army Active", "SITE_NAME": "Presidio Of Monterey", "JOINT_BASE": "N\/A", "STATE_TERR": "California", "COUNTRY": "United States", "OPER_STAT": "Active" }, "geometry": { "type": "Point", "coordinates": [ -121.90671, 36.60582 ] } },
{ "type": "Feature", "properties": { "COMPONENT": "Army Active", "SITE_NAME": "Riverbank AAP", "JOINT_BASE": "N\/A", "STATE_TERR": "California", "COUNTRY": "United States", "OPER_STAT": "Inactive" }, "geometry": { "type": "Point", "coordinates": [ -120.91944, 37.7154 ] } },
{ "type": "Feature", "properties": { "COMPONENT": "Army Active", "SITE_NAME": "White Sands Missile Range", "JOINT_BASE": "N\/A", "STATE_TERR": "New Mexico", "COUNTRY": "United States", "OPER_STAT": "Active" }, "geometry": { "type": "Point", "coordinates": [ -106.51941, 33.4098 ] } },
{ "type": "Feature", "properties": { "COMPONENT": "Army Active", "SITE_NAME": "Defense Distribution Region West Sharpe Site", "JOINT_BASE": "N\/A", "STATE_TERR": "California", "COUNTRY": "United States", "OPER_STAT": "Active" }, "geometry": { "type": "Point", "coordinates": [ -121.26899, 37.84053 ] } },
{ "type": "Feature", "properties": { "COMPONENT": "Army Active", "SITE_NAME": "Defense Distribution Region West Tracy", "JOINT_BASE": "N\/A", "STATE_TERR": "California", "COUNTRY": "United States", "OPER_STAT": "Active" }, "geometry": { "type": "Point", "coordinates": [ -121.39235, 37.71587 ] } },
{ "type": "Feature", "properties": { "COMPONENT": "Army Active", "SITE_NAME": "Defense General Supply Center", "JOINT_BASE": "N\/A", "STATE_TERR": "Virginia", "COUNTRY": "United States", "OPER_STAT": "Active" }, "geometry": { "type": "Point", "coordinates": [ -77.45059, 37.41877 ] } },
{ "type": "Feature", "properties": { "COMPONENT": "Army Active", "SITE_NAME": "Fort Greely", "JOINT_BASE": "N\/A", "STATE_TERR": "Alaska", "COUNTRY": "United States", "OPER_STAT": "Active" }, "geometry": { "type": "Point", "coordinates": [ -145.71881, 63.97097 ] } },
{ "type": "Feature", "properties": { "COMPONENT": "Army Active", "SITE_NAME": "Longhorn AAP", "JOINT_BASE": "N\/A", "STATE_TERR": "Texas", "COUNTRY": "United States", "OPER_STAT": "Inactive" }, "geometry": { "type": "Point", "coordinates": [ -94.13493, 32.66812 ] } },
{ "type": "Feature", "properties": { "COMPONENT": "Army Active", "SITE_NAME": "Green River Test Complex", "JOINT_BASE": "N\/A", "STATE_TERR": "Utah", "COUNTRY": "United States", "OPER_STAT": "Active" }, "geometry": { "type": "Point", "coordinates": [ -110.10123, 38.96164 ] } },
{ "type": "Feature", "properties": { "COMPONENT": "Army Active", "SITE_NAME": "Badger AAP", "JOINT_BASE": "N\/A", "STATE_TERR": "Wisconsin", "COUNTRY": "United States", "OPER_STAT": "Inactive" }, "geometry": { "type": "Point", "coordinates": [ -89.75685, 43.33895 ] } },
{ "type": "Feature", "properties": { "COMPONENT": "Army Active", "SITE_NAME": "Cornhusker AAP", "JOINT_BASE": "N\/A", "STATE_TERR": "Nebraska", "COUNTRY": "United States", "OPER_STAT": "Inactive" }, "geometry": { "type": "Point", "coordinates": [ -98.49134, 40.92461 ] } },
{ "type": "Feature", "properties": { "COMPONENT": "Army Active", "SITE_NAME": "Indiana AAP", "JOINT_BASE": "N\/A", "STATE_TERR": "Indiana", "COUNTRY": "United States", "OPER_STAT": "Inactive" }, "geometry": { "type": "Point", "coordinates": [ -85.64744, 38.40616 ] } },
{ "type": "Feature", "properties": { "COMPONENT": "Army Active", "SITE_NAME": "Joliet AAP Kankakee", "JOINT_BASE": "N\/A", "STATE_TERR": "Illinois", "COUNTRY": "United States", "OPER_STAT": "Inactive" }, "geometry": { "type": "Point", "coordinates": [ -88.12901, 41.38939 ] } },
{ "type": "Feature", "properties": { "COMPONENT": "Army Active", "SITE_NAME": "Rocky Mountain Arsenal", "JOINT_BASE": "N\/A", "STATE_TERR": "Colorado", "COUNTRY": "United States", "OPER_STAT": "Inactive" }, "geometry": { "type": "Point", "coordinates": [ -104.84906, 39.82763 ] } },
{ "type": "Feature", "properties": { "COMPONENT": "Army Active", "SITE_NAME": "Rock Island Arsenal", "JOINT_BASE": "N\/A", "STATE_TERR": "Illinois", "COUNTRY": "United States", "OPER_STAT": "Active" }, "geometry": { "type": "Point", "coordinates": [ -90.54252, 41.51785 ] } },
{ "type": "Feature", "properties": { "COMPONENT": "Army Active", "SITE_NAME": "Defense Supply Center Columbus", "JOINT_BASE": "N\/A", "STATE_TERR": "Ohio", "COUNTRY": "United States", "OPER_STAT": "Active" }, "geometry": { "type": "Point", "coordinates": [ -82.89435, 39.97863 ] } },
{ "type": "Feature", "properties": { "COMPONENT": "Army Active", "SITE_NAME": "Fort Wingate Depot Activity", "JOINT_BASE": "N\/A", "STATE_TERR": "New Mexico", "COUNTRY": "United States", "OPER_STAT": "Inactive" }, "geometry": { "type": "Point", "coordinates": [ -108.60261, 35.46798 ] } },
{ "type": "Feature", "properties": { "COMPONENT": "Army Active", "SITE_NAME": "Savanna Depot Act", "JOINT_BASE": "N\/A", "STATE_TERR": "Illinois", "COUNTRY": "United States", "OPER_STAT": "Inactive" }, "geometry": { "type": "Point", "coordinates": [ -90.34317, 42.23085 ] } },
{ "type": "Feature", "properties": { "COMPONENT": "Army Active", "SITE_NAME": "Makua Military Reserve", "JOINT_BASE": "N\/A", "STATE_TERR": "Hawaii", "COUNTRY": "United States", "OPER_STAT": "Active" }, "geometry": { "type": "Point", "coordinates": [ -158.205, 21.53103 ] } },
{ "type": "Feature", "properties": { "COMPONENT": "Army Active", "SITE_NAME": "Aberdeen Proving Ground", "JOINT_BASE": "N\/A", "STATE_TERR": "Maryland", "COUNTRY": "United States", "OPER_STAT": "Active" }, "geometry": { "type": "Point", "coordinates": [ -76.20726, 39.40781 ] } },
{ "type": "Feature", "properties": { "COMPONENT": "Army Active", "SITE_NAME": "Carlisle Barracks", "JOINT_BASE": "N\/A", "STATE_TERR": "Pennsylvania", "COUNTRY": "United States", "OPER_STAT": "Active" }, "geometry": { "type": "Point", "coordinates": [ -77.17354, 40.20986 ] } },
{ "type": "Feature", "properties": { "COMPONENT": "Army Active", "SITE_NAME": "Fort Belvoir", "JOINT_BASE": "N\/A", "STATE_TERR": "Virginia", "COUNTRY": "United States", "OPER_STAT": "Active" }, "geometry": { "type": "Point", "coordinates": [ -77.14488, 38.70032 ] } },
{ "type": "Feature", "properties": { "COMPONENT": "Army Active", "SITE_NAME": "Fort Detrick", "JOINT_BASE": "N\/A", "STATE_TERR": "Maryland", "COUNTRY": "United States", "OPER_STAT": "Active" }, "geometry": { "type": "Point", "coordinates": [ -77.42785, 39.43882 ] } },
{ "type": "Feature", "properties": { "COMPONENT": "Army Active", "SITE_NAME": "Fort Hamilton", "JOINT_BASE": "N\/A", "STATE_TERR": "New York", "COUNTRY": "United States", "OPER_STAT": "Active" }, "geometry": { "type": "Point", "coordinates": [ -74.02949, 40.60864 ] } },
{ "type": "Feature", "properties": { "COMPONENT": "Army Active", "SITE_NAME": "Fort Lee", "JOINT_BASE": "N\/A", "STATE_TERR": "Virginia", "COUNTRY": "United States", "OPER_STAT": "Active" }, "geometry": { "type": "Point", "coordinates": [ -77.33446, 37.24635 ] } },
{ "type": "Feature", "properties": { "COMPONENT": "Army Active", "SITE_NAME": "Letterkenny Army Depot", "JOINT_BASE": "N\/A", "STATE_TERR": "Pennsylvania", "COUNTRY": "United States", "OPER_STAT": "Active" }, "geometry": { "type": "Point", "coordinates": [ -77.69145, 40.01812 ] } },
{ "type": "Feature", "properties": { "COMPONENT": "Army Active", "SITE_NAME": "Picatinny Arsenal", "JOINT_BASE": "N\/A", "STATE_TERR": "New Jersey", "COUNTRY": "United States", "OPER_STAT": "Active" }, "geometry": { "type": "Point", "coordinates": [ -74.54382, 40.95492 ] } },
{ "type": "Feature", "properties": { "COMPONENT": "Army Active", "SITE_NAME": "Radford AAP", "JOINT_BASE": "N\/A", "STATE_TERR": "Virginia", "COUNTRY": "United States", "OPER_STAT": "Active" }, "geometry": { "type": "Point", "coordinates": [ -80.54208, 37.18736 ] } },
{ "type": "Feature", "properties": { "COMPONENT": "Army Active", "SITE_NAME": "Scranton AAP", "JOINT_BASE": "N\/A", "STATE_TERR": "Pennsylvania", "COUNTRY": "United States", "OPER_STAT": "Active" }, "geometry": { "type": "Point", "coordinates": [ -75.66591, 41.40418 ] } },
{ "type": "Feature", "properties": { "COMPONENT": "Army Active", "SITE_NAME": "Tobyhanna Army Depot", "JOINT_BASE": "N\/A", "STATE_TERR": "Pennsylvania", "COUNTRY": "United States", "OPER_STAT": "Active" }, "geometry": { "type": "Point", "coordinates": [ -75.42963, 41.19878 ] } },